[{"id":"CN2019085B77HYJ","type":"Feature","geometry":{"type":"Point","coordinates":[120.43482,31.830654]},"properties":{"name":"JIANGSU BEST FASHION","address":"No.88 Huanxi Road, Zhutang Town, Jianggyin City, Jiangsu Province, Jiangsu, 510214400","country_code":"CN","os_id":"CN2019085B77HYJ","country_name":"China","has_approved_claim":false,"ppe_product_types":null,"ppe_contact_phone":null,"ppe_contact_email":null,"ppe_website":null,"is_closed":null}},{"id":"CN2020191ZCYNTR","type":"Feature","geometry":{"type":"Point","coordinates":[118.8357626,34.126637]},"properties":{"name":"Jiangsu Bonas Kniting Co.,Ltd","address":"NO.6,Yiwu Road,Shuyang SuqianJiangsu Province, Shuyang","country_code":"CN","os_id":"CN2020191ZCYNTR","country_name":"China","has_approved_claim":false,"ppe_product_types":null,"ppe_contact_phone":null,"ppe_contact_email":null,"ppe_website":null,"is_closed":null}},{"id":"CN20190838AXDSX","type":"Feature","geometry":{"type":"Point","coordinates":[120.5376663,31.0148964]},"properties":{"name":"Jiangsu Guotai Baoma Clothing","address":"58 Xihuan Road Zhangqiao Town Changshu City Jiangsu","country_code":"CN","os_id":"CN20190838AXDSX","country_name":"China","has_approved_claim":false,"ppe_product_types":null,"ppe_contact_phone":null,"ppe_contact_email":null,"ppe_website":null,"is_closed":null}},{"id":"CN2019083Z4WH0R","type":"Feature","geometry":{"type":"Point","coordinates":[120.1101261,31.7256451]},"properties":{"name":"Jiangsu Pinytex Textile Dyeing & Finishing Co. Ltd.","address":"South Qingyang Road, 165  Wujin Changzhou Jiangsu","country_code":"CN","os_id":"CN2019083Z4WH0R","country_name":"China","has_approved_claim":false,"ppe_product_types":null,"ppe_contact_phone":null,"ppe_contact_email":null,"ppe_website":null,"is_closed":null}},{"id":"CN20191723P0AT4","type":"Feature","geometry":{"type":"Point","coordinates":[114.169103,22.564324]},"properties":{"name":"Jiangsu Sainty Land Up Garments Co., Ltd.","address":"No.17, Liantang Industrial Concentration Zone, Huangmei Town, Jurong City, Jiangsu Province, China Jurong 212426 Jiangsu","country_code":"CN","os_id":"CN20191723P0AT4","country_name":"China","has_approved_claim":false,"ppe_product_types":null,"ppe_contact_phone":null,"ppe_contact_email":null,"ppe_website":null,"is_closed":null}},{"id":"CN20191000V4YPH","type":"Feature","geometry":{"type":"Point","coordinates":[120.4118403,31.7583488]},"properties":{"name":"Jiangyin One Touch Knitting Co., Ltd.","address":"NO. 58 Xinzhuang Road, Jiangyin Zhutangzhen, Wuxi, Jiangsu","country_code":"CN","os_id":"CN20191000V4YPH","country_name":"China","has_approved_claim":false,"ppe_product_types":null,"ppe_contact_phone":null,"ppe_contact_email":null,"ppe_website":null,"is_closed":null}},{"id":"CN2020268ZY748N","type":"Feature","geometry":{"type":"Point","coordinates":[120.789967,30.7617754]},"properties":{"name":"JIAXING MENGXIN FASHION CORP., LTD","address":"15# Building, Zhejiang Jiaxing Silk Industrial Zone, Jiaxing, Zhejiang, China","country_code":"CN","os_id":"CN2020268ZY748N","country_name":"China","has_approved_claim":false,"ppe_product_types":null,"ppe_contact_phone":null,"ppe_contact_email":null,"ppe_website":null,"is_closed":null}},{"id":"CN2019085DSP2HS","type":"Feature","geometry":{"type":"Point","coordinates":[121.2291056,30.6876923]},"properties":{"name":"Jiaxing New Rimei Fashion Co. Ltd.","address":"No. 518 Quangongting East Road, Quantang Pinghu","country_code":"CN","os_id":"CN2019085DSP2HS","country_name":"China","has_approved_claim":false,"ppe_product_types":null,"ppe_contact_phone":null,"ppe_contact_email":null,"ppe_website":null,"is_closed":null}},{"id":"CN20221378P2XBA","type":"Feature","geometry":{"type":"Point","coordinates":[120.7092,30.7638799]},"properties":{"name":"Jiaxing Qinglian Textile Printing and Dyeing Co., Ltd.","address":"Wangjiang Jingzhen Economic Development Zone, Xiuzhou District Jiaxing China","country_code":"CN","os_id":"CN20221378P2XBA","country_name":"China","has_approved_claim":false,"ppe_product_types":null,"ppe_contact_phone":null,"ppe_contact_email":null,"ppe_website":null,"is_closed":null}},{"id":"CN2019083R63Z6E","type":"Feature","geometry":{"type":"Point","coordinates":[118.552365,24.781681]},"properties":{"name":"Jinjiang Bonnie Garment Manufacturing Co Ltd","address":"Jinjiang Bonnie Garment Manufacturing Coltd Gaohu Industry Area  Yinglin Town Jinjiang City  Fujian Province","country_code":"CN","os_id":"CN2019083R63Z6E","country_name":"China","has_approved_claim":false,"ppe_product_types":null,"ppe_contact_phone":null,"ppe_contact_email":null,"ppe_website":null,"is_closed":null}},{"id":"CN201908301FTN7","type":"Feature","geometry":{"type":"Point","coordinates":[118.6794208,24.6157718]},"properties":{"name":"Jinjiang Dali Garments & Weaving Co., Ltd.","address":"Donghaian Development Area, Shenhu Town, Jinjiang 362246 Fujian","country_code":"CN","os_id":"CN201908301FTN7","country_name":"China","has_approved_claim":false,"ppe_product_types":null,"ppe_contact_phone":null,"ppe_contact_email":null,"ppe_website":null,"is_closed":null}},{"id":"CN2020328HDM7GB","type":"Feature","geometry":{"type":"Point","coordinates":[118.5686081,24.6021229]},"properties":{"name":"Jinjiang Zhaonuo Garment Co., Ltd.","address":"No. 1 Xita Road, Yinlin Town, Jinjiang, Fujian362256","country_code":"CN","os_id":"CN2020328HDM7GB","country_name":"China","has_approved_claim":false,"ppe_product_types":null,"ppe_contact_phone":null,"ppe_contact_email":null,"ppe_website":null,"is_closed":null}},{"id":"BR202125357ETQE","type":"Feature","geometry":{"type":"Point","coordinates":[-49.0323793,-22.3105871]},"properties":{"name":"J. Shayeb & Cia. LTDA","address":"Ricardo Gabas, 145, Distrito Industrial, Bauru","country_code":"BR","os_id":"BR202125357ETQE","country_name":"Brazil","has_approved_claim":false,"ppe_product_types":null,"ppe_contact_phone":null,"ppe_contact_email":null,"ppe_website":null,"is_closed":null}},{"id":"BD2019083VHYW47","type":"Feature","geometry":{"type":"Point","coordinates":[90.307703,23.931745]},"properties":{"name":"Knit Asia Ltd.","address":"East Narshinghapur, Buripara, Earpur, Dhaka 1741 Dhaka","country_code":"BD","os_id":"BD2019083VHYW47","country_name":"Bangladesh","has_approved_claim":false,"ppe_product_types":["Masks"],"ppe_contact_phone":"8801755519","ppe_contact_email":"zakir@knitasia.com","ppe_website":"https://www.knitasia.com","is_closed":null}},{"id":"BD2020052C5VJ9R","type":"Feature","geometry":{"type":"Point","coordinates":[90.35721730000002,23.9019195]},"properties":{"name":"Knit Bazaar (Pvt) Ltd.","address":"Knit Bazaar (Pvt) Ltd. 40/41 Vadam , P.O- Nishat Nagor 1711, P.S- Tongi, Dist- Gazipur, Bangladesh Gazipur","country_code":"BD","os_id":"BD2020052C5VJ9R","country_name":"Bangladesh","has_approved_claim":false,"ppe_product_types":null,"ppe_contact_phone":null,"ppe_contact_email":null,"ppe_website":null,"is_closed":null}},{"id":"IN2019175HPP0FW","type":"Feature","geometry":{"type":"Point","coordinates":[77.2088987,11.1546]},"properties":{"name":"Kpr Mill Limited Garment Division","address":"S.F.No: 7, 7/11, Thekkalur Village, Avanashi (Tk) Tirupur Tamil Nadu 641654","country_code":"IN","os_id":"IN2019175HPP0FW","country_name":"India","has_approved_claim":false,"ppe_product_types":null,"ppe_contact_phone":null,"ppe_contact_email":null,"ppe_website":null,"is_closed":null}},{"id":"BR2019086X31XX9","type":"Feature","geometry":{"type":"Point","coordinates":[-49.1318335,-26.905212]},"properties":{"name":"Krefeld IndЈstria E Com‚rcio Ltda Me","address":"R. General Osўrio, 4366, 89032240, Blumenau, Brazil","country_code":"BR","os_id":"BR2019086X31XX9","country_name":"Brazil","has_approved_claim":false,"ppe_product_types":null,"ppe_contact_phone":null,"ppe_contact_email":null,"ppe_website":null,"is_closed":null}},{"id":"TR20201916XRG88","type":"Feature","geometry":{"type":"Point","coordinates":[29.0963328,37.7830159]},"properties":{"name":"Küçüker Tekstil San. ve Tic. A.S.","address":"Guzelkoy Mah. 233 .Sok No:4A, 20170, Denizli","country_code":"TR","os_id":"TR20201916XRG88","country_name":"Türkiye","has_approved_claim":false,"ppe_product_types":null,"ppe_contact_phone":null,"ppe_contact_email":null,"ppe_website":null,"is_closed":null}},{"id":"BD2019259V05103","type":"Feature","geometry":{"type":"Point","coordinates":[90.380132,23.9504063]},"properties":{"name":"Labib Dyeing Mills","address":"Bade Colemessor, National University, Gazipur-1704","country_code":"BD","os_id":"BD2019259V05103","country_name":"Bangladesh","has_approved_claim":false,"ppe_product_types":null,"ppe_contact_phone":null,"ppe_contact_email":null,"ppe_website":null,"is_closed":null}},{"id":"CN2019192XWGRMY","type":"Feature","geometry":{"type":"Point","coordinates":[113.61818,22.919615]},"properties":{"name":"Lake Side Textiles Printing & dyeing Co. ltd","address":"Shatian Environmental Industrial estate,Shatian Town, Dongguan City, Guangdong","country_code":"CN","os_id":"CN2019192XWGRMY","country_name":"China","has_approved_claim":false,"ppe_product_types":null,"ppe_contact_phone":null,"ppe_contact_email":null,"ppe_website":null,"is_closed":null}},{"id":"BD2019248F05HJQ","type":"Feature","geometry":{"type":"Point","coordinates":[90.4986887,24.1271861]},"properties":{"name":"Lakhsma Innerwear Ltd.","address":"Gorgoria Masterbari to Sreepur Road, South Vanganahati, Sreepur, Gazipur-1740","country_code":"BD","os_id":"BD2019248F05HJQ","country_name":"Bangladesh","has_approved_claim":false,"ppe_product_types":null,"ppe_contact_phone":null,"ppe_contact_email":null,"ppe_website":null,"is_closed":null}},{"id":"IT2021314NY50AC","type":"Feature","geometry":{"type":"Point","coordinates":[8.2113405,45.6753994]},"properties":{"name":"Lanificio Botto Giuseppe & Figli Spa","address":"Via B. Sella, 166, 13835 Valdilana BI, Italy","country_code":"IT","os_id":"IT2021314NY50AC","country_name":"Italy","has_approved_claim":false,"ppe_product_types":null,"ppe_contact_phone":null,"ppe_contact_email":null,"ppe_website":null,"is_closed":null}},{"id":"CN20200666QHVFS","type":"Feature","geometry":{"type":"Point","coordinates":[119.141473,28.074649]},"properties":{"name":"Leroy Far East Knitwears Ltd","address":"No. 19 Long Quan Street, Xinji, Nan Cheng District, Dongguan City, Guangdong Province, 523076","country_code":"CN","os_id":"CN20200666QHVFS","country_name":"China","has_approved_claim":false,"ppe_product_types":null,"ppe_contact_phone":null,"ppe_contact_email":null,"ppe_website":null,"is_closed":null}},{"id":"BD2020009ET1BY5","type":"Feature","geometry":{"type":"Point","coordinates":[90.3250333,24.009641]},"properties":{"name":"Life Textiles Pvt Ltd","address":"Plot No 69 70 71 BSCIC I A Konabari Gazipur Bangladesh","country_code":"BD","os_id":"BD2020009ET1BY5","country_name":"Bangladesh","has_approved_claim":false,"ppe_product_types":null,"ppe_contact_phone":null,"ppe_contact_email":null,"ppe_website":null,"is_closed":null}},{"id":"IT2020053N0BG92","type":"Feature","geometry":{"type":"Point","coordinates":[9.2742357,45.767864]},"properties":{"name":"Limonta spa","address":"Via Cesare Battisti 15 Costa Masnaga Lecco 23845","country_code":"IT","os_id":"IT2020053N0BG92","country_name":"Italy","has_approved_claim":false,"ppe_product_types":null,"ppe_contact_phone":null,"ppe_contact_email":null,"ppe_website":null,"is_closed":null}},{"id":"MA2021186KR1FEB","type":"Feature","geometry":{"type":"Point","coordinates":[-5.800447,35.7540818]},"properties":{"name":"Linaline","address":"Z I Elmajd lot 830, Alle A no 63, BP 4615, Drissiya, Tangier, 90000","country_code":"MA","os_id":"MA2021186KR1FEB","country_name":"Morocco","has_approved_claim":false,"ppe_product_types":null,"ppe_contact_phone":null,"ppe_contact_email":null,"ppe_website":null,"is_closed":null}},{"id":"CN2020076W4SG2D","type":"Feature","geometry":{"type":"Point","coordinates":[114.5646799,37.440147]},"properties":{"name":"Lincheng Yongtai Garments Co., Ltd","address":"East Of The Northern Part Of Zhongxing Road, Lincheng Economic Development Zone, Lincheng County","country_code":"CN","os_id":"CN2020076W4SG2D","country_name":"China","has_approved_claim":false,"ppe_product_types":null,"ppe_contact_phone":null,"ppe_contact_email":null,"ppe_website":null,"is_closed":null}},{"id":"CN2020148VXB73F","type":"Feature","geometry":{"type":"Point","coordinates":[118.4632059,34.9986778]},"properties":{"name":"Linyi Dishang Garment Co Ltd Huaming Bra","address":"No .131 Lingong Road economic development zone Linyi City Shandong Province","country_code":"CN","os_id":"CN2020148VXB73F","country_name":"China","has_approved_claim":false,"ppe_product_types":null,"ppe_contact_phone":null,"ppe_contact_email":null,"ppe_website":null,"is_closed":null}},{"id":"CN2019100QHR020","type":"Feature","geometry":{"type":"Point","coordinates":[119.7856584,28.3480488]},"properties":{"name":"LISHUI WANBANG SHOES CO., LTD","address":"NO.810 BIXING STREET, BIHU TOWN, LISHUI, Zhejiang","country_code":"CN","os_id":"CN2019100QHR020","country_name":"China","has_approved_claim":false,"ppe_product_types":null,"ppe_contact_phone":null,"ppe_contact_email":null,"ppe_website":null,"is_closed":null}},{"id":"VN2019158JXEMS8","type":"Feature","geometry":{"type":"Point","coordinates":[106.6089691,10.8333005]},"properties":{"name":"LTP VIETNAM CO. LTD","address":"286 Phan Van Hon St. Tan Thoi Nhat Ward Dist. 12 Ho Chi Minh City Vietnam","country_code":"VN","os_id":"VN2019158JXEMS8","country_name":"Vietnam","has_approved_claim":false,"ppe_product_types":null,"ppe_contact_phone":null,"ppe_contact_email":null,"ppe_website":null,"is_closed":null}},{"id":"CN2019108EWS56M","type":"Feature","geometry":{"type":"Point","coordinates":[120.270954,30.5081605]},"properties":{"name":"Luxury Fengrun Fashion Accessories Co Ltd","address":"No.288 Hanghai Road, Industrial Zone, Yuyue Deqing Zhejiang China","country_code":"CN","os_id":"CN2019108EWS56M","country_name":"China","has_approved_claim":false,"ppe_product_types":null,"ppe_contact_phone":null,"ppe_contact_email":null,"ppe_website":null,"is_closed":null}},{"id":"IN20190856M1FVN","type":"Feature","geometry":{"type":"Point","coordinates":[77.4056451,28.5565541]},"properties":{"name":"MAGNOLIA MARTINIQUE","address":"A-13, Phase II, Sector 80, Noida, Uttar Pradesh, 201301","country_code":"IN","os_id":"IN20190856M1FVN","country_name":"India","has_approved_claim":false,"ppe_product_types":null,"ppe_contact_phone":null,"ppe_contact_email":null,"ppe_website":null,"is_closed":null}},{"id":"IN2020343DXETQE","type":"Feature","geometry":{"type":"Point","coordinates":[77.3799529,28.616836]},"properties":{"name":"MAHAVIRACOLLECTIONS(P)LTD","address":"A-116, SECTOR-63, NOIDA, U.P","country_code":"IN","os_id":"IN2020343DXETQE","country_name":"India","has_approved_claim":false,"ppe_product_types":null,"ppe_contact_phone":null,"ppe_contact_email":null,"ppe_website":null,"is_closed":null}},{"id":"BD2019241TW5581","type":"Feature","geometry":{"type":"Point","coordinates":[90.4125181,23.810332]},"properties":{"name":"Mahmuda Attires Ltd","address":"Balitah Shabeliswar hamrai Dhaka","country_code":"BD","os_id":"BD2019241TW5581","country_name":"Bangladesh","has_approved_claim":false,"ppe_product_types":null,"ppe_contact_phone":null,"ppe_contact_email":null,"ppe_website":null,"is_closed":null}},{"id":"TR2020053F39RSY","type":"Feature","geometry":{"type":"Point","coordinates":[36.8882711,37.5899242]},"properties":{"name":"MARITAS DENIM SAN. TIC.A.S","address":"aksu mah. kazancızade sadi blv. no 29/A KAHRAMANMARAS/TURKEY Dulkadiroglu Kahramanmaras 46100","country_code":"TR","os_id":"TR2020053F39RSY","country_name":"Türkiye","has_approved_claim":false,"ppe_product_types":null,"ppe_contact_phone":null,"ppe_contact_email":null,"ppe_website":null,"is_closed":null}},{"id":"BD201917244V79F","type":"Feature","geometry":{"type":"Point","coordinates":[90.36484,23.81739]},"properties":{"name":"Mark Designers Ltd.","address":"Plot # 12-14, Road # 03, Section # 07, Mirpur, Dhaka-1216","country_code":"BD","os_id":"BD201917244V79F","country_name":"Bangladesh","has_approved_claim":true,"ppe_product_types":null,"ppe_contact_phone":null,"ppe_contact_email":null,"ppe_website":null,"is_closed":null}},{"id":"BD2019248WSFKSG","type":"Feature","geometry":{"type":"Point","coordinates":[90.293414,23.9102604]},"properties":{"name":"Marma Composite Ltd.","address":"Tonga Bari, Ashulia, Savar, Dhaka - 1341","country_code":"BD","os_id":"BD2019248WSFKSG","country_name":"Bangladesh","has_approved_claim":false,"ppe_product_types":null,"ppe_contact_phone":null,"ppe_contact_email":null,"ppe_website":null,"is_closed":null}},{"id":"BD2022280JAFWB8","type":"Feature","geometry":{"type":"Point","coordinates":[91.7896718,22.2722865]},"properties":{"name":"Mars Apparels Limited","address":"Plot 64, Nasirabad I/A (Karnaphully Export Processing Zone), Chattogram (Chittagong), Chittagong","country_code":"BD","os_id":"BD2022280JAFWB8","country_name":"Bangladesh","has_approved_claim":false,"ppe_product_types":null,"ppe_contact_phone":null,"ppe_contact_email":null,"ppe_website":null,"is_closed":null}},{"id":"BD20191810N9ES1","type":"Feature","geometry":{"type":"Point","coordinates":[90.3810718,23.9202631]},"properties":{"name":"Masco Industries Ltd","address":"22 Khairtail Shataish Road Tongi  Gazipur","country_code":"BD","os_id":"BD20191810N9ES1","country_name":"Bangladesh","has_approved_claim":false,"ppe_product_types":null,"ppe_contact_phone":null,"ppe_contact_email":null,"ppe_website":null,"is_closed":null}},{"id":"BD2019086GZ4V7N","type":"Feature","geometry":{"type":"Point","coordinates":[90.3721759,23.9114413]},"properties":{"name":"Masco Picasso Limited","address":"318, Khapara Road, Tilargati, Tongi, Gazipur","country_code":"BD","os_id":"BD2019086GZ4V7N","country_name":"Bangladesh","has_approved_claim":false,"ppe_product_types":null,"ppe_contact_phone":null,"ppe_contact_email":null,"ppe_website":null,"is_closed":null}},{"id":"IN20190835MJGFR","type":"Feature","geometry":{"type":"Point","coordinates":[77.2972601,11.1008356]},"properties":{"name":"MAS KNITS","address":"SF NO 254/2, KULATHUPUDUR, MANGALAM ROADANDIPALAYAM","country_code":"IN","os_id":"IN20190835MJGFR","country_name":"India","has_approved_claim":false,"ppe_product_types":null,"ppe_contact_phone":null,"ppe_contact_email":null,"ppe_website":null,"is_closed":null}},{"id":"BD2019248ENXP5V","type":"Feature","geometry":{"type":"Point","coordinates":[90.3726205,23.966459]},"properties":{"name":"Meek Sweater & Fashions Ltd.","address":"Holding No: 1693 (1st Floor), Shonda, Sharifpur, National University, Gazipur Sadar, Gazipur-1704","country_code":"BD","os_id":"BD2019248ENXP5V","country_name":"Bangladesh","has_approved_claim":false,"ppe_product_types":null,"ppe_contact_phone":null,"ppe_contact_email":null,"ppe_website":null,"is_closed":null}},{"id":"TW2019085VYFKZY","type":"Feature","geometry":{"type":"Point","coordinates":[121.28078,25.0593978]},"properties":{"name":"MEN-CHUEN FIBRE INDUSTRY CO., LTD. (TAIWAN)","address":"NO.31,XINGLONG ST.,CHANGXING VIL., LUZHU TOWNSHIP,TAOYUAN COUNTY 338, TAIWAN TAOYUAN T'AI-WAN 338","country_code":"TW","os_id":"TW2019085VYFKZY","country_name":"Taiwan","has_approved_claim":false,"ppe_product_types":null,"ppe_contact_phone":null,"ppe_contact_email":null,"ppe_website":null,"is_closed":null}},{"id":"IN20200530BC0C6","type":"Feature","geometry":{"type":"Point","coordinates":[77.8631709,27.9364229]},"properties":{"name":"MI INDUSTRIES (INDIA) PVT LTD","address":"KH.388, VILLAGE- DHARAMPUR, TEHSIL- KHAIR, DISTRICT- ALIGARH Aligarh Uttar Pradesh 202135","country_code":"IN","os_id":"IN20200530BC0C6","country_name":"India","has_approved_claim":false,"ppe_product_types":null,"ppe_contact_phone":null,"ppe_contact_email":null,"ppe_website":null,"is_closed":null}},{"id":"VN2019083VJFQHZ","type":"Feature","geometry":{"type":"Point","coordinates":[106.3221727,20.444864]},"properties":{"name":"Minh Tri Thai Binh Co., Ltd.","address":"Bui Vien Street  Nguyen Duc Canh Industrial Zone Tran Hung Dao Ward Thai Binh Thai Binh","country_code":"VN","os_id":"VN2019083VJFQHZ","country_name":"Vietnam","has_approved_claim":false,"ppe_product_types":null,"ppe_contact_phone":null,"ppe_contact_email":null,"ppe_website":null,"is_closed":null}},{"id":"CN2021188078XVE","type":"Feature","geometry":{"type":"Point","coordinates":[120.127873,30.889226]},"properties":{"name":"MIZUDA TEXTILE PRINTING &\nDYEING GROUP CO LTD","address":"No. 588 Mizuda Road, Wuxin District, Huzhou (Zhejiang)","country_code":"CN","os_id":"CN2021188078XVE","country_name":"China","has_approved_claim":false,"ppe_product_types":null,"ppe_contact_phone":null,"ppe_contact_email":null,"ppe_website":null,"is_closed":null}},{"id":"BD2019086TD3MTR","type":"Feature","geometry":{"type":"Point","coordinates":[90.4974359,23.6315743]},"properties":{"name":"Modele De Capital Ind. Ltd","address":"Talla Road, Khapur, 1400, Narayangonj, Bangladesh","country_code":"BD","os_id":"BD2019086TD3MTR","country_name":"Bangladesh","has_approved_claim":false,"ppe_product_types":null,"ppe_contact_phone":null,"ppe_contact_email":null,"ppe_website":null,"is_closed":null}},{"id":"KH2019100SEK093","type":"Feature","geometry":{"type":"Point","coordinates":[104.8079932,11.4523739]},"properties":{"name":"MOHA GARMENTS CO.,LTD","address":"Soun Ouksahahakam Vattanac II, Road No.3, Sangkat Krang Pongror, Khan Dangkor,Phnom Penh, Phnom Penh, Phnom Penh [Phnum Penh]","country_code":"KH","os_id":"KH2019100SEK093","country_name":"Cambodia","has_approved_claim":false,"ppe_product_types":null,"ppe_contact_phone":null,"ppe_contact_email":null,"ppe_website":null,"is_closed":null}},{"id":"BD2020268C740BW","type":"Feature","geometry":{"type":"Point","coordinates":[90.3209478,23.9887791]},"properties":{"name":"Mondol Knit Tex Ltd.","address":"Kashimpur, Nayapara, Gazipur Sadar, Gazipur, Bangladesh","country_code":"BD","os_id":"BD2020268C740BW","country_name":"Bangladesh","has_approved_claim":false,"ppe_product_types":null,"ppe_contact_phone":null,"ppe_contact_email":null,"ppe_website":null,"is_closed":null}},{"id":"VN20230622DWCT4","type":"Feature","geometry":{"type":"Point","coordinates":[105.2253316,21.7220958]},"properties":{"name":"MSA YB CO LTD","address":"MSA Co. Ltd Quarter No.04, Doi Can Ward, Tuyen Quang City, Tuyen Quang Province","country_code":"VN","os_id":"VN20230622DWCT4","country_name":"Vietnam","has_approved_claim":false,"ppe_product_types":null,"ppe_contact_phone":null,"ppe_contact_email":null,"ppe_website":null,"is_closed":null}}]