[{"id":"VN20200301N7WQV","type":"Feature","geometry":{"type":"Point","coordinates":[106.4902193,10.7903226]},"properties":{"name":"WAN I LEATHER GOODS","address":"Lot D14,Road No.7,Tan Do Industrial Zone ,Binh Tien 2 Village, , Duc Hoa district, Long An","country_code":"VN","os_id":"VN20200301N7WQV","country_name":"Vietnam","has_approved_claim":false,"ppe_product_types":null,"ppe_contact_phone":null,"ppe_contact_email":null,"ppe_website":null,"is_closed":null}},{"id":"IN2022007P2YVZM","type":"Feature","geometry":{"type":"Point","coordinates":[77.4075744,28.5316554]},"properties":{"name":"WEARWELL INDIA","address":"B30 Hoisery Complex Phase 2, District Gautam Buddh Nagar, 201305","country_code":"IN","os_id":"IN2022007P2YVZM","country_name":"India","has_approved_claim":false,"ppe_product_types":null,"ppe_contact_phone":null,"ppe_contact_email":null,"ppe_website":null,"is_closed":null}},{"id":"CN2020148XYB7ZE","type":"Feature","geometry":{"type":"Point","coordinates":[122.0447968,37.2135914]},"properties":{"name":"Weihai Jinxiu Drawnwork Co Ltd","address":"NO A 15-1 15-2 Zhuhai West Road Wendeng District Weihai City Shandong Province","country_code":"CN","os_id":"CN2020148XYB7ZE","country_name":"China","has_approved_claim":false,"ppe_product_types":null,"ppe_contact_phone":null,"ppe_contact_email":null,"ppe_website":null,"is_closed":null}},{"id":"CN2019083RJ0HSW","type":"Feature","geometry":{"type":"Point","coordinates":[122.1650211,37.37626]},"properties":{"name":"Weihai Junhe Apparel Co Ltd","address":"729-6 Qingdao South Road Weihai City Shandong Province","country_code":"CN","os_id":"CN2019083RJ0HSW","country_name":"China","has_approved_claim":false,"ppe_product_types":null,"ppe_contact_phone":null,"ppe_contact_email":null,"ppe_website":null,"is_closed":null}},{"id":"CN2021273Y3SJ3H","type":"Feature","geometry":{"type":"Point","coordinates":[122.0219539,37.188781]},"properties":{"name":"Weihai Xinfu Ornament Co. Ltd.","address":"152-6 Wenshan Road, Huanshan Office, Wendeng District, Weihai, Shandong","country_code":"CN","os_id":"CN2021273Y3SJ3H","country_name":"China","has_approved_claim":false,"ppe_product_types":null,"ppe_contact_phone":null,"ppe_contact_email":null,"ppe_website":null,"is_closed":null}},{"id":"CN2019085W8XREH","type":"Feature","geometry":{"type":"Point","coordinates":[113.939783,22.67797]},"properties":{"name":"WEISI BAO'AN FACTORY","address":"4/F,Building 7, Hui Ke Industry, Shilong Industrial Zone, Avenue 2, No. 1,Shiyan Bao'An, Shenzhen City, Guangdong, 518108","country_code":"CN","os_id":"CN2019085W8XREH","country_name":"China","has_approved_claim":false,"ppe_product_types":null,"ppe_contact_phone":null,"ppe_contact_email":null,"ppe_website":null,"is_closed":null}},{"id":"CN2020057NECFTS","type":"Feature","geometry":{"type":"Point","coordinates":[121.5941306,28.3423559]},"properties":{"name":"Wenling Yongcheng Arts & Grafts Co., LTD","address":"No.233,Naxin Road,Eastsouth industrial park,Songmen Town,317500,Wenling","country_code":"CN","os_id":"CN2020057NECFTS","country_name":"China","has_approved_claim":false,"ppe_product_types":null,"ppe_contact_phone":null,"ppe_contact_email":null,"ppe_website":null,"is_closed":null}},{"id":"CN2020037TKTXDG","type":"Feature","geometry":{"type":"Point","coordinates":[120.540989,27.9766649]},"properties":{"name":"Wenzhou Bomei Shoes","address":"Building 1, 2, 4, No 2888, Ouhai Avenue, Zhaxi Street, Ouhai District, Wenzhou, Zhejiang, China","country_code":"CN","os_id":"CN2020037TKTXDG","country_name":"China","has_approved_claim":false,"ppe_product_types":null,"ppe_contact_phone":null,"ppe_contact_email":null,"ppe_website":null,"is_closed":null}},{"id":"CN20203446VV5RS","type":"Feature","geometry":{"type":"Point","coordinates":[120.756201,27.963023]},"properties":{"name":"Wenzhou Fengyue Shoes Co., Ltd.","address":"No.101,Xingyuan Road,Zhuangyuan Street,Longwan District,Wenzhou,Zhejiang,China","country_code":"CN","os_id":"CN20203446VV5RS","country_name":"China","has_approved_claim":false,"ppe_product_types":null,"ppe_contact_phone":null,"ppe_contact_email":null,"ppe_website":null,"is_closed":null}},{"id":"CN2020335VMAAEH","type":"Feature","geometry":{"type":"Point","coordinates":[120.54899,27.98847]},"properties":{"name":"WENZHOU HUADELI SHOES CO., LTD.","address":"No. 58 Fuquan Road, Sanxi Industry Area, Ouhai Area, Wenzhou, Zhejiang, CHINA","country_code":"CN","os_id":"CN2020335VMAAEH","country_name":"China","has_approved_claim":false,"ppe_product_types":null,"ppe_contact_phone":null,"ppe_contact_email":null,"ppe_website":null,"is_closed":null}},{"id":"CN20211681W6YGP","type":"Feature","geometry":{"type":"Point","coordinates":[120.6018376,27.945523]},"properties":{"name":"WENZHOU JINTSHOES CO.,LTD","address":"NO.55 NANHUI ROAD,OUHAI DISTRICT,WENZHOU CITY,ZHEJIANG PROVINCE","country_code":"CN","os_id":"CN20211681W6YGP","country_name":"China","has_approved_claim":false,"ppe_product_types":null,"ppe_contact_phone":null,"ppe_contact_email":null,"ppe_website":null,"is_closed":null}},{"id":"CN2019086WE4YB2","type":"Feature","geometry":{"type":"Point","coordinates":[120.3034705,27.5812824]},"properties":{"name":"Wenzhou Jiuyang Leather Goods Co., Ltd","address":"no 668 naocun middle road, nao village, shuitou town, 325405, Wenzhou, China","country_code":"CN","os_id":"CN2019086WE4YB2","country_name":"China","has_approved_claim":false,"ppe_product_types":null,"ppe_contact_phone":null,"ppe_contact_email":null,"ppe_website":null,"is_closed":null}},{"id":"CN2020148Z67SW3","type":"Feature","geometry":{"type":"Point","coordinates":[120.756255,27.963212]},"properties":{"name":"Wenzhou Mingjie Shoes Co Ltd","address":"No 76 Xingyuan Rd Zhuangyuan Street Longwan District Wenzhou Zhejiang","country_code":"CN","os_id":"CN2020148Z67SW3","country_name":"China","has_approved_claim":false,"ppe_product_types":null,"ppe_contact_phone":null,"ppe_contact_email":null,"ppe_website":null,"is_closed":null}},{"id":"CN20190837CBJB3","type":"Feature","geometry":{"type":"Point","coordinates":[120.5468294,27.9891219]},"properties":{"name":"Wenzhou Tuoli Shoes Co Ltd","address":"No51 Fuhao Road  Juxi Town  Wenzhou  Zhejiang","country_code":"CN","os_id":"CN20190837CBJB3","country_name":"China","has_approved_claim":false,"ppe_product_types":null,"ppe_contact_phone":null,"ppe_contact_email":null,"ppe_website":null,"is_closed":null}},{"id":"CN2019086TBXDF9","type":"Feature","geometry":{"type":"Point","coordinates":[120.799822,28.0149688]},"properties":{"name":"WENZHOU WEILIN LEATHER CO., LTD","address":"OUJIANG ROAD, 325603, LEQING, China","country_code":"CN","os_id":"CN2019086TBXDF9","country_name":"China","has_approved_claim":false,"ppe_product_types":null,"ppe_contact_phone":null,"ppe_contact_email":null,"ppe_website":null,"is_closed":null}},{"id":"CN2020204TBNFW0","type":"Feature","geometry":{"type":"Point","coordinates":[120.3459087,27.659161]},"properties":{"name":"Wenzhou Yangcheng Leather and Clothes Co Ltd","address":"(Beside 57 provincial Road) Leather Industry Area WENZHOU","country_code":"CN","os_id":"CN2020204TBNFW0","country_name":"China","has_approved_claim":false,"ppe_product_types":null,"ppe_contact_phone":null,"ppe_contact_email":null,"ppe_website":null,"is_closed":null}},{"id":"DE2019083AQ6XRW","type":"Feature","geometry":{"type":"Point","coordinates":[6.8511457,51.84127770000001]},"properties":{"name":"Wilh. Wülfing GmbH & Co. KG","address":"Weseler Landstr. 26, 46325 Borken","country_code":"DE","os_id":"DE2019083AQ6XRW","country_name":"Germany","has_approved_claim":false,"ppe_product_types":null,"ppe_contact_phone":null,"ppe_contact_email":null,"ppe_website":null,"is_closed":null}},{"id":"BR20190869SC1VR","type":"Feature","geometry":{"type":"Point","coordinates":[-54.8229312,-29.4092125]},"properties":{"name":"Willian Bonoto E Delevati & Cia Ltda","address":"Maria Vielmo Frizzo,566 Modulo Ii, 97770000, Nova Esperan‡a Do Sul, Brazil","country_code":"BR","os_id":"BR20190869SC1VR","country_name":"Brazil","has_approved_claim":false,"ppe_product_types":null,"ppe_contact_phone":null,"ppe_contact_email":null,"ppe_website":null,"is_closed":null}},{"id":"CN201917653SGJE","type":"Feature","geometry":{"type":"Point","coordinates":[114.9317931,25.4068598]},"properties":{"name":"Wilson, Xinfeng Industrial Park","address":"1 Xing Cun Road, Xinfeng Industrial Park, Xinfeng County Ganzhou  Jiangxi","country_code":"CN","os_id":"CN201917653SGJE","country_name":"China","has_approved_claim":false,"ppe_product_types":null,"ppe_contact_phone":null,"ppe_contact_email":null,"ppe_website":null,"is_closed":null}},{"id":"BR2021253V0EJ42","type":"Feature","geometry":{"type":"Point","coordinates":[-52.1725883,-29.6143479]},"properties":{"name":"WINCK & GIEHL LTDA","address":"PROFESSOR ANTONIO LUIZ DA SILVA, 1352, CORONEL BRITO, Venancio Aires","country_code":"BR","os_id":"BR2021253V0EJ42","country_name":"Brazil","has_approved_claim":false,"ppe_product_types":null,"ppe_contact_phone":null,"ppe_contact_email":null,"ppe_website":null,"is_closed":null}},{"id":"KH2019097SEHEQC","type":"Feature","geometry":{"type":"Point","coordinates":[103.1765623,13.1057027]},"properties":{"name":"Wing Star Shoes, Co. Ltd.","address":"National Road No.3, Phum Ang Sukhunthea, Khum Moharussei, Srok Korng Pisei, Ket Kampong","country_code":"KH","os_id":"KH2019097SEHEQC","country_name":"Cambodia","has_approved_claim":false,"ppe_product_types":null,"ppe_contact_phone":null,"ppe_contact_email":null,"ppe_website":null,"is_closed":null}},{"id":"KH20190853BK6CZ","type":"Feature","geometry":{"type":"Point","coordinates":[104.7156373,11.5083822]},"properties":{"name":"Wing Ying (Cambodia) Garment Factory Limited","address":"National Rd. No. 4, Prey Rokar Village, Chhork Chev Neang Commune, Angsnuol District, Kandal Province Phnom Penh","country_code":"KH","os_id":"KH20190853BK6CZ","country_name":"Cambodia","has_approved_claim":false,"ppe_product_types":null,"ppe_contact_phone":null,"ppe_contact_email":null,"ppe_website":null,"is_closed":null}},{"id":"VN2020119FAYDVJ","type":"Feature","geometry":{"type":"Point","coordinates":[105.9589716,19.9991947]},"properties":{"name":"Winners Vina Co., Ltd","address":"Nga Lo 1 Sub-area, Nga Son Town, Nga Son District , Thanh Hoa ,Thanh Hoa","country_code":"VN","os_id":"VN2020119FAYDVJ","country_name":"Vietnam","has_approved_claim":false,"ppe_product_types":null,"ppe_contact_phone":null,"ppe_contact_email":null,"ppe_website":null,"is_closed":null}},{"id":"KH2021270PDMWPA","type":"Feature","geometry":{"type":"Point","coordinates":[105.1258955,11.2237383]},"properties":{"name":"Winsand Garment & Woolen","address":"Road No. 118A, Phum Preaktouch Khum Preak Dach Srok Loek Doek Khet Kandal","country_code":"KH","os_id":"KH2021270PDMWPA","country_name":"Cambodia","has_approved_claim":false,"ppe_product_types":null,"ppe_contact_phone":null,"ppe_contact_email":null,"ppe_website":null,"is_closed":null}},{"id":"KH2019181ZMXECK","type":"Feature","geometry":{"type":"Point","coordinates":[104.798771,11.2845641]},"properties":{"name":"Wintai Sock Manufacture Ltd.","address":"National Rd. No. 2, Khlaing Sambath Village, Puthsor Commune, Bati District","country_code":"KH","os_id":"KH2019181ZMXECK","country_name":"Cambodia","has_approved_claim":false,"ppe_product_types":null,"ppe_contact_phone":null,"ppe_contact_email":null,"ppe_website":null,"is_closed":null}},{"id":"CN20221547Q3CBS","type":"Feature","geometry":{"type":"Point","coordinates":[120.670142,30.905922]},"properties":{"name":"Wujiang Aodlan Hometextile Co., Ltd","address":"No.8 Group, Dingfang Village, Shengze Town, Wujiang District","country_code":"CN","os_id":"CN20221547Q3CBS","country_name":"China","has_approved_claim":false,"ppe_product_types":null,"ppe_contact_phone":null,"ppe_contact_email":null,"ppe_website":null,"is_closed":null}},{"id":"CN2019091AZX34M","type":"Feature","geometry":{"type":"Point","coordinates":[120.6344954,30.9531611]},"properties":{"name":"Wujiang Pingwang Dyeing Factory Ltd.","address":"No. 227 Fuxing Village Pingwang Wujiang District Suzhou 215221","country_code":"CN","os_id":"CN2019091AZX34M","country_name":"China","has_approved_claim":false,"ppe_product_types":null,"ppe_contact_phone":null,"ppe_contact_email":null,"ppe_website":null,"is_closed":null}},{"id":"CN202005318Q8DJ","type":"Feature","geometry":{"type":"Point","coordinates":[120.4941446,30.8171453]},"properties":{"name":"Wujiang Taoyuan Hairun Dyeing Co.,Ltd","address":"No. 288, Hairun Road, Taoyuan Town, Wujiang City, Jiangsu Province, China Suzhou Jiangsu 215236","country_code":"CN","os_id":"CN202005318Q8DJ","country_name":"China","has_approved_claim":false,"ppe_product_types":null,"ppe_contact_phone":null,"ppe_contact_email":null,"ppe_website":null,"is_closed":null}},{"id":"CN2020053X3FC5X","type":"Feature","geometry":{"type":"Point","coordinates":[120.2640486,31.6493026]},"properties":{"name":"Wuxi Tianzi Printing&Dyeing Co.,Ltd.","address":"Zhenshi Road, Shitangwan Industrial Park, Luoshe Town, Huishan District, Wuxi City, Jiangsu Province Wuxi Jiangsu 214100","country_code":"CN","os_id":"CN2020053X3FC5X","country_name":"China","has_approved_claim":false,"ppe_product_types":null,"ppe_contact_phone":null,"ppe_contact_email":null,"ppe_website":null,"is_closed":null}},{"id":"CN2019181AWYVV1","type":"Feature","geometry":{"type":"Point","coordinates":[118.147511,24.71834]},"properties":{"name":"Xiamen Beltop Leather","address":"2nd Floor , D Building, 155 Southern Chengnan Road Chengnan Industry Zone Tongan District, Xiamen City Fujian","country_code":"CN","os_id":"CN2019181AWYVV1","country_name":"China","has_approved_claim":false,"ppe_product_types":null,"ppe_contact_phone":null,"ppe_contact_email":null,"ppe_website":null,"is_closed":null}},{"id":"CN2021139VCC53Y","type":"Feature","geometry":{"type":"Point","coordinates":[118.082658,24.445567]},"properties":{"name":"XIAMEN EXPANDING INDUSTRIAL CO  LTD","address":"NO.21 SIMING PARK,INDUSTRIAL  ZONE,TONGAN DISTRICT, XIAMEN, FUJIAN","country_code":"CN","os_id":"CN2021139VCC53Y","country_name":"China","has_approved_claim":false,"ppe_product_types":null,"ppe_contact_phone":null,"ppe_contact_email":null,"ppe_website":null,"is_closed":null}},{"id":"CN2020230S56BEQ","type":"Feature","geometry":{"type":"Point","coordinates":[113.482453,33.846369]},"properties":{"name":"Xiangcheng Xingxin Footwear Co Ltd","address":"Baidian Village Xiangcheng Town Xuchang City Henan Province","country_code":"CN","os_id":"CN2020230S56BEQ","country_name":"China","has_approved_claim":false,"ppe_product_types":null,"ppe_contact_phone":null,"ppe_contact_email":null,"ppe_website":null,"is_closed":null}},{"id":"CN2020148SP725Z","type":"Feature","geometry":{"type":"Point","coordinates":[119.578364,34.199479]},"properties":{"name":"Xiangshui Hesen Craft Co Ltd","address":"Small and Medium Enterprise Venture Park Qitao Center Xiangshui County Yancheng City Jiangsu Province","country_code":"CN","os_id":"CN2020148SP725Z","country_name":"China","has_approved_claim":false,"ppe_product_types":null,"ppe_contact_phone":null,"ppe_contact_email":null,"ppe_website":null,"is_closed":null}},{"id":"CN2020148QNCXZP","type":"Feature","geometry":{"type":"Point","coordinates":[113.0735015,22.6510194]},"properties":{"name":"Xinli Garment Manufacturer Co Ltd","address":"No. 26 Hua’an Road Pengjiang District Jiangmen City Guangdong Province","country_code":"CN","os_id":"CN2020148QNCXZP","country_name":"China","has_approved_claim":false,"ppe_product_types":null,"ppe_contact_phone":null,"ppe_contact_email":null,"ppe_website":null,"is_closed":null}},{"id":"CN2019083K3TSCX","type":"Feature","geometry":{"type":"Point","coordinates":[114.20509,35.141889]},"properties":{"name":"XINXIANG CHEMICAL FIBRE CO.LTD","address":"Yanjin   Xinxiang Henan","country_code":"CN","os_id":"CN2019083K3TSCX","country_name":"China","has_approved_claim":false,"ppe_product_types":null,"ppe_contact_phone":null,"ppe_contact_email":null,"ppe_website":null,"is_closed":null}},{"id":"CN2019086CHM8CG","type":"Feature","geometry":{"type":"Point","coordinates":[118.640854,34.427226]},"properties":{"name":"Xinyi GuoTai Huayi Garment Co. Ltd.","address":"Second Group of Xinzhuang, Shaodian Town, Xinyi city,Jiangsu province, 221428, Jiangsu, China","country_code":"CN","os_id":"CN2019086CHM8CG","country_name":"China","has_approved_claim":false,"ppe_product_types":null,"ppe_contact_phone":null,"ppe_contact_email":null,"ppe_website":null,"is_closed":null}},{"id":"CN2019083PZ91JS","type":"Feature","geometry":{"type":"Point","coordinates":[114.7778079,32.3656923]},"properties":{"name":"XiXian TianChuang Garment Co., Ltd","address":"Yurun Road, West Industrial Agglomeration Area  XiXian Xinyang Henan","country_code":"CN","os_id":"CN2019083PZ91JS","country_name":"China","has_approved_claim":false,"ppe_product_types":null,"ppe_contact_phone":null,"ppe_contact_email":null,"ppe_website":null,"is_closed":null}},{"id":"VN2019100A1A42C","type":"Feature","geometry":{"type":"Point","coordinates":[106.1081103,20.9046273]},"properties":{"name":"XNK Phuong Dong Production Joint Stock Company","address":"Xuan Duc Commune, My Hao District, Hung Yen","country_code":"VN","os_id":"VN2019100A1A42C","country_name":"Vietnam","has_approved_claim":false,"ppe_product_types":null,"ppe_contact_phone":null,"ppe_contact_email":null,"ppe_website":null,"is_closed":null}},{"id":"CN2022039DDCJRK","type":"Feature","geometry":{"type":"Point","coordinates":[120.23517,33.28034]},"properties":{"name":"Yancheng Lifemax","address":"Industrial Zone, Wuyou Street, Chengnan New District, Yancheng, Jiangsu","country_code":"CN","os_id":"CN2022039DDCJRK","country_name":"China","has_approved_claim":false,"ppe_product_types":null,"ppe_contact_phone":null,"ppe_contact_email":null,"ppe_website":null,"is_closed":null}},{"id":"CN2020217RD2YAE","type":"Feature","geometry":{"type":"Point","coordinates":[119.3949956,32.3632265]},"properties":{"name":"YANGZHOU CHUNTAO ACCESSORY CO.,LTD","address":"YangGua Road, GuaZhou Town, HanJiang District, Nil, , Yangzhou, Jiangsu","country_code":"CN","os_id":"CN2020217RD2YAE","country_name":"China","has_approved_claim":false,"ppe_product_types":null,"ppe_contact_phone":null,"ppe_contact_email":null,"ppe_website":null,"is_closed":null}},{"id":"CN20200108GCBRX","type":"Feature","geometry":{"type":"Point","coordinates":[119.389592,32.504051]},"properties":{"name":"Yangzhou Huamao Craftwork Co., Ltd.","address":"No.34 Middie Huangjue Hong  Cheng Road Fangxiang Town  Hanjiang Direct  YangZhou City  China","country_code":"CN","os_id":"CN20200108GCBRX","country_name":"China","has_approved_claim":false,"ppe_product_types":null,"ppe_contact_phone":null,"ppe_contact_email":null,"ppe_website":null,"is_closed":null}},{"id":"CN2019322MSZSJV","type":"Feature","geometry":{"type":"Point","coordinates":[119.397994,32.377655]},"properties":{"name":"Yangzhou Jinquan Travelling Goods Co. Ltd.","address":"No 63 HuigGui Road HanJiang Yangzhou Western Suburbs of Yangzhou, Yangzhou, Jiangsu, China","country_code":"CN","os_id":"CN2019322MSZSJV","country_name":"China","has_approved_claim":false,"ppe_product_types":null,"ppe_contact_phone":null,"ppe_contact_email":null,"ppe_website":null,"is_closed":null}},{"id":"CN20203302C3G84","type":"Feature","geometry":{"type":"Point","coordinates":[119.832652,32.37712]},"properties":{"name":"Yangzhou Linghang Textile Co., Ltd.","address":"No. 6 Xihuan Road, Putou Town Industry Zone, Jiangdu Area, East China  Yangzhou225000","country_code":"CN","os_id":"CN20203302C3G84","country_name":"China","has_approved_claim":false,"ppe_product_types":null,"ppe_contact_phone":null,"ppe_contact_email":null,"ppe_website":null,"is_closed":null}},{"id":"CN2020315RGDZ3N","type":"Feature","geometry":{"type":"Point","coordinates":[119.405682,32.43107]},"properties":{"name":"YANGZHOU RICH ARTS & CRAFTS CO., LTD","address":"939 NORTH YANGZIJIANG ROAD, YANGZHOU, 225008, YANGZHOU","country_code":"CN","os_id":"CN2020315RGDZ3N","country_name":"China","has_approved_claim":false,"ppe_product_types":null,"ppe_contact_phone":null,"ppe_contact_email":null,"ppe_website":null,"is_closed":null}},{"id":"BR2019086WQ9TW0","type":"Feature","geometry":{"type":"Point","coordinates":[-48.0156472,-23.0323221]},"properties":{"name":"Yd Confeccoes Ltsda.","address":"Avenida  Elias Tomazela N§. 378, 18570000, Conchas, Brazil","country_code":"BR","os_id":"BR2019086WQ9TW0","country_name":"Brazil","has_approved_claim":false,"ppe_product_types":null,"ppe_contact_phone":null,"ppe_contact_email":null,"ppe_website":null,"is_closed":null}},{"id":"TR202301203PZS1","type":"Feature","geometry":{"type":"Point","coordinates":[29.0723262,40.2625821]},"properties":{"name":"YEDİKARDEŞ TEKSTİL SAN. TİC. A.Ş.","address":"Dosab Gonca Sk. No:13, 16245 Osmangazi","country_code":"TR","os_id":"TR202301203PZS1","country_name":"Türkiye","has_approved_claim":false,"ppe_product_types":null,"ppe_contact_phone":null,"ppe_contact_email":null,"ppe_website":null,"is_closed":null}},{"id":"IN2019083XV46XD","type":"Feature","geometry":{"type":"Point","coordinates":[77.7112263,11.5687883]},"properties":{"name":"Yellow Jerseys","address":"782, Panickampalayam, Perundurai, Erode, 638052","country_code":"IN","os_id":"IN2019083XV46XD","country_name":"India","has_approved_claim":false,"ppe_product_types":null,"ppe_contact_phone":null,"ppe_contact_email":null,"ppe_website":null,"is_closed":null}},{"id":"BD20200211EXMYB","type":"Feature","geometry":{"type":"Point","coordinates":[90.5295929,23.6736992]},"properties":{"name":"YESTER JEANS LTD.","address":"111-114, Adamjee EPZ, Adamjee Nagar, Siddhirgonj  Naranyanganj","country_code":"BD","os_id":"BD20200211EXMYB","country_name":"Bangladesh","has_approved_claim":false,"ppe_product_types":null,"ppe_contact_phone":null,"ppe_contact_email":null,"ppe_website":null,"is_closed":null}},{"id":"TR2019259FA8QF9","type":"Feature","geometry":{"type":"Point","coordinates":[27.844655,41.208639]},"properties":{"name":"YILTEKS YIK. SAN. VE TIC.AS.","address":"VELIMESE MAHALLESI OSB MAHALLESI 210. SOKAK NO:15/1 ERGENE - TEKIRDAG - CORLU","country_code":"TR","os_id":"TR2019259FA8QF9","country_name":"Türkiye","has_approved_claim":false,"ppe_product_types":null,"ppe_contact_phone":null,"ppe_contact_email":null,"ppe_website":null,"is_closed":null}},{"id":"CN2019083QBPW40","type":"Feature","geometry":{"type":"Point","coordinates":[122.353732,40.843534]},"properties":{"name":"YINGKOU JINJI MAKING CLOTHING CO.,LTD","address":"Xinsheng Road, 90, Xiongyue Town 115009  Yingkou Liaoning","country_code":"CN","os_id":"CN2019083QBPW40","country_name":"China","has_approved_claim":false,"ppe_product_types":null,"ppe_contact_phone":null,"ppe_contact_email":null,"ppe_website":null,"is_closed":null}}]