[{"id":"TR2019083H08SM3","type":"Feature","geometry":{"type":"Point","coordinates":[28.837453,41.056669]},"properties":{"name":"Hazar Tekstil San. Ve Dis. Tic. A.S","address":"Goztepe Mah Karanfil Sok. No. 48Bagcilar","country_code":"TR","os_id":"TR2019083H08SM3","country_name":"Türkiye","has_approved_claim":false,"ppe_product_types":null,"ppe_contact_phone":null,"ppe_contact_email":null,"ppe_website":null,"is_closed":null}},{"id":"VN2020016VWVFDX","type":"Feature","geometry":{"type":"Point","coordinates":[106.0787142,20.9190334]},"properties":{"name":"HUNG LONG GARMENT & SERVICE JSC","address":"NGUYEN VAN LINH STREET, DI SU WARD, MY HAO TOWN, HUNG YEN PROVINCE, Hung Yen Province, 160000","country_code":"VN","os_id":"VN2020016VWVFDX","country_name":"Vietnam","has_approved_claim":false,"ppe_product_types":null,"ppe_contact_phone":null,"ppe_contact_email":null,"ppe_website":null,"is_closed":null}},{"id":"PK2020034MWFQ51","type":"Feature","geometry":{"type":"Point","coordinates":[74.0734693,31.296154]},"properties":{"name":"Indus Home Limited","address":"2.5 KM Off Manga Raiwind Road Manga Mandi Lahore,54600,Lahore","country_code":"PK","os_id":"PK2020034MWFQ51","country_name":"Pakistan","has_approved_claim":false,"ppe_product_types":null,"ppe_contact_phone":null,"ppe_contact_email":null,"ppe_website":null,"is_closed":null}},{"id":"BD20190831T4WMC","type":"Feature","geometry":{"type":"Point","coordinates":[90.2551098,23.9937669]},"properties":{"name":"IRIS Fabrics Ltd.","address":"Nabinagar Chandra Road, Zirani Bazar, BKSP, Kashimpur, Gazipur-1349","country_code":"BD","os_id":"BD20190831T4WMC","country_name":"Bangladesh","has_approved_claim":false,"ppe_product_types":null,"ppe_contact_phone":null,"ppe_contact_email":null,"ppe_website":null,"is_closed":null}},{"id":"KH20201396P8ZQY","type":"Feature","geometry":{"type":"Point","coordinates":[104.8527586,11.5704326]},"properties":{"name":"JH Garment (Cambodia) Co.Ltd.","address":"Phum Damnak Thom 3, Sangkat Steung Mean Chey 3, Khan Mean Chey","country_code":"KH","os_id":"KH20201396P8ZQY","country_name":"Cambodia","has_approved_claim":false,"ppe_product_types":null,"ppe_contact_phone":null,"ppe_contact_email":null,"ppe_website":null,"is_closed":null}},{"id":"CN2019259HA7SS1","type":"Feature","geometry":{"type":"Point","coordinates":[120.1889252,31.5716697]},"properties":{"name":"JIANGSU ZHONGCHEN PRINTING&DYING CO.,LTD","address":"NO. 568 # QIANHU ROAD, - WUXI - 510000 - JIANGSU","country_code":"CN","os_id":"CN2019259HA7SS1","country_name":"China","has_approved_claim":false,"ppe_product_types":null,"ppe_contact_phone":null,"ppe_contact_email":null,"ppe_website":null,"is_closed":null}},{"id":"CN2021006XRQZHR","type":"Feature","geometry":{"type":"Point","coordinates":[118.566015,24.595123]},"properties":{"name":"JINJINAG AIDE FASHION CO LTD","address":"NO. 77 JINDE ROAD, HEDE INDUSTRIAL PARK, SANOU VILLGE, YINGLIN TWO N, JINJIANG CITY FUJIAN PROVINCE","country_code":"CN","os_id":"CN2021006XRQZHR","country_name":"China","has_approved_claim":false,"ppe_product_types":null,"ppe_contact_phone":null,"ppe_contact_email":null,"ppe_website":null,"is_closed":null}},{"id":"CN2022300M2R51E","type":"Feature","geometry":{"type":"Point","coordinates":[112.44789,23.0597]},"properties":{"name":"KaiPing Tatfung Weaving, Printing, Dyeing & Garment Co., Ltd.","address":"Block 3 No. 21-3, Meihua Road, ShuiKou Town, KaiPing, Guangdong 529300","country_code":"CN","os_id":"CN2022300M2R51E","country_name":"China","has_approved_claim":false,"ppe_product_types":null,"ppe_contact_phone":null,"ppe_contact_email":null,"ppe_website":null,"is_closed":null}},{"id":"PK2020328D4N2TE","type":"Feature","geometry":{"type":"Point","coordinates":[73.2825862,31.4891375]},"properties":{"name":"Kamal Limited","address":"4Th Kilometer Jaranwala Road Khurrianwala Faisalabad","country_code":"PK","os_id":"PK2020328D4N2TE","country_name":"Pakistan","has_approved_claim":false,"ppe_product_types":null,"ppe_contact_phone":null,"ppe_contact_email":null,"ppe_website":null,"is_closed":null}},{"id":"BD201924857RCYE","type":"Feature","geometry":{"type":"Point","coordinates":[90.46529620000001,23.8589041]},"properties":{"name":"K. C. Bottom & Shirt Wear Company","address":"Industrial Park, Kanchkura, Uttar Khan, Uttara, Dhaka - 1230","country_code":"BD","os_id":"BD201924857RCYE","country_name":"Bangladesh","has_approved_claim":false,"ppe_product_types":null,"ppe_contact_phone":null,"ppe_contact_email":null,"ppe_website":null,"is_closed":null}},{"id":"BD2019085MWJW41","type":"Feature","geometry":{"type":"Point","coordinates":[90.3172039,23.9101983]},"properties":{"name":"MAGPIE KNITWEAR LTD","address":"Plot No 141, Yarpur, Zirabo, Savar, Dhaka, 1341","country_code":"BD","os_id":"BD2019085MWJW41","country_name":"Bangladesh","has_approved_claim":false,"ppe_product_types":null,"ppe_contact_phone":null,"ppe_contact_email":null,"ppe_website":null,"is_closed":null}},{"id":"MA2019083DN9ZGZ","type":"Feature","geometry":{"type":"Point","coordinates":[-6.80094,33.9883616]},"properties":{"name":"Marcotex","address":"Lot C3 Quartier Industriel Takaddoum Rabat","country_code":"MA","os_id":"MA2019083DN9ZGZ","country_name":"Morocco","has_approved_claim":false,"ppe_product_types":null,"ppe_contact_phone":null,"ppe_contact_email":null,"ppe_website":null,"is_closed":null}},{"id":"BD2019108QBVS5P","type":"Feature","geometry":{"type":"Point","coordinates":[90.2947322,23.970545]},"properties":{"name":"Mega Yarn Dyeing Mills Ltd. & Mega Fashion Wear Ltd","address":"Sardagonj, Gavindabari, Kashimpur Gazipur Gazipur Dhaka 1349","country_code":"BD","os_id":"BD2019108QBVS5P","country_name":"Bangladesh","has_approved_claim":false,"ppe_product_types":null,"ppe_contact_phone":null,"ppe_contact_email":null,"ppe_website":null,"is_closed":null}},{"id":"BD2020043XFKMVZ","type":"Feature","geometry":{"type":"Point","coordinates":[90.38059469999999,23.9772783]},"properties":{"name":"MIM Design Limited","address":"Vogra, Bashan Sarak, 1704, Gazipur, Dhaka, Bangladesh","country_code":"BD","os_id":"BD2020043XFKMVZ","country_name":"Bangladesh","has_approved_claim":false,"ppe_product_types":null,"ppe_contact_phone":null,"ppe_contact_email":null,"ppe_website":null,"is_closed":null}},{"id":"BD20190833Z2TZT","type":"Feature","geometry":{"type":"Point","coordinates":[90.4526541,24.1926584]},"properties":{"name":"MNR Sweaters Ltd.","address":"Baraiderchala, Sreepur, 1740-Gazipur, Dhaka","country_code":"BD","os_id":"BD20190833Z2TZT","country_name":"Bangladesh","has_approved_claim":false,"ppe_product_types":null,"ppe_contact_phone":null,"ppe_contact_email":null,"ppe_website":null,"is_closed":null}},{"id":"BD2019085EY3WW6","type":"Feature","geometry":{"type":"Point","coordinates":[90.3209478,23.9887791]},"properties":{"name":"MONDOL FABRICS LTD","address":"Nayapara, Kashimpur, Gazipur, Dhaka,","country_code":"BD","os_id":"BD2019085EY3WW6","country_name":"Bangladesh","has_approved_claim":false,"ppe_product_types":null,"ppe_contact_phone":null,"ppe_contact_email":null,"ppe_website":null,"is_closed":null}},{"id":"IN2021166H1B6HX","type":"Feature","geometry":{"type":"Point","coordinates":[72.357525,22.594592]},"properties":{"name":"Nandan Terry Pvt. Limited","address":"Survey No. 357/A/5-7, 350, 353, Dholi Integrated, Ahmedabad - 382 240, Gujarat,","country_code":"IN","os_id":"IN2021166H1B6HX","country_name":"India","has_approved_claim":false,"ppe_product_types":null,"ppe_contact_phone":null,"ppe_contact_email":null,"ppe_website":null,"is_closed":null}},{"id":"CN20190911J3J7P","type":"Feature","geometry":{"type":"Point","coordinates":[118.930204,32.326654]},"properties":{"name":"Nanjing Sumec Chuangyuan Co. Ltd.","address":"No. 138 Xingzhen Road Liuhe District Nanjing 211515","country_code":"CN","os_id":"CN20190911J3J7P","country_name":"China","has_approved_claim":false,"ppe_product_types":null,"ppe_contact_phone":null,"ppe_contact_email":null,"ppe_website":null,"is_closed":null}},{"id":"BD2019083QK270G","type":"Feature","geometry":{"type":"Point","coordinates":[90.2619472,23.9936155]},"properties":{"name":"Nice cotton limited","address":"Panishail , kashimpur 1704  Gazipur Gazipur","country_code":"BD","os_id":"BD2019083QK270G","country_name":"Bangladesh","has_approved_claim":false,"ppe_product_types":null,"ppe_contact_phone":null,"ppe_contact_email":null,"ppe_website":null,"is_closed":null}},{"id":"BD2019083DHKBJB","type":"Feature","geometry":{"type":"Point","coordinates":[90.3795438,23.8758547]},"properties":{"name":"Nipa Fashion Wear Ind. Ltd.","address":"Selina Tower 01 & 06,  Holan Road, Islambag, Dhakhin Khan, 1230, Uttara, Dhaka","country_code":"BD","os_id":"BD2019083DHKBJB","country_name":"Bangladesh","has_approved_claim":false,"ppe_product_types":null,"ppe_contact_phone":null,"ppe_contact_email":null,"ppe_website":null,"is_closed":null}},{"id":"GB2019310DFSP7B","type":"Feature","geometry":{"type":"Point","coordinates":[-1.4077955,52.5362829]},"properties":{"name":"NJ Screen Prints Factory","address":"8 Nuffield Road, Harrowbrook Industrial Estate, Hinckley, Leicestershire","country_code":"GB","os_id":"GB2019310DFSP7B","country_name":"United Kingdom","has_approved_claim":false,"ppe_product_types":null,"ppe_contact_phone":null,"ppe_contact_email":null,"ppe_website":null,"is_closed":null}},{"id":"TR20190839XKYVF","type":"Feature","geometry":{"type":"Point","coordinates":[28.632795,41.066421]},"properties":{"name":"Ozgur Baski ve Nakis San. Tic. Ltd. Sti.","address":"Akcaburgaz Mh. Muhsin Yazicioglu cd., 17/1 34522 Esenyurt Istanbul Istanbul","country_code":"TR","os_id":"TR20190839XKYVF","country_name":"Türkiye","has_approved_claim":false,"ppe_product_types":null,"ppe_contact_phone":null,"ppe_contact_email":null,"ppe_website":null,"is_closed":null}},{"id":"BD20190833XZ668","type":"Feature","geometry":{"type":"Point","coordinates":[90.38059469999999,23.9772783]},"properties":{"name":"Panasia Clothing Ltd","address":"Aziz Chowdhury Complex-2 Vogra Joydebpur Gazipur","country_code":"BD","os_id":"BD20190833XZ668","country_name":"Bangladesh","has_approved_claim":false,"ppe_product_types":null,"ppe_contact_phone":null,"ppe_contact_email":null,"ppe_website":null,"is_closed":null}},{"id":"IN20190984RD1QN","type":"Feature","geometry":{"type":"Point","coordinates":[77.410832,28.536858]},"properties":{"name":"Paramount Products Pvt. Ltd","address":"B-40, Hoisiery Complex, Phase II, Noida, Uttar Pradesh, 201301","country_code":"IN","os_id":"IN20190984RD1QN","country_name":"India","has_approved_claim":false,"ppe_product_types":["Body coverall"],"ppe_contact_phone":"9711541716","ppe_contact_email":"arif@paramountproducts.in","ppe_website":null,"is_closed":null}},{"id":"PT2019083S3N9M9","type":"Feature","geometry":{"type":"Point","coordinates":[-8.3635519,41.3046694]},"properties":{"name":"Petratex Confecções S.A.","address":"R. do Bande 429, 4590-049 Carvalhosa, Portugal","country_code":"PT","os_id":"PT2019083S3N9M9","country_name":"Portugal","has_approved_claim":true,"ppe_product_types":null,"ppe_contact_phone":null,"ppe_contact_email":null,"ppe_website":null,"is_closed":null}},{"id":"BD2019297V7DYH2","type":"Feature","geometry":{"type":"Point","coordinates":[90.3136564,24.0243693]},"properties":{"name":"P.N. Composite Ltd","address":"Ambagh, Konabari Gazipur Gazipur","country_code":"BD","os_id":"BD2019297V7DYH2","country_name":"Bangladesh","has_approved_claim":false,"ppe_product_types":null,"ppe_contact_phone":null,"ppe_contact_email":null,"ppe_website":null,"is_closed":null}},{"id":"ID202019171567P","type":"Feature","geometry":{"type":"Point","coordinates":[110.2422663,-7.8466279]},"properties":{"name":"PT. ANGGUN KREASI GARMEN","address":"Bakal Dukuh, Argodadi, Sedayu, Bantul, D.I Yogyakarta, Bantul","country_code":"ID","os_id":"ID202019171567P","country_name":"Indonesia","has_approved_claim":false,"ppe_product_types":null,"ppe_contact_phone":null,"ppe_contact_email":null,"ppe_website":null,"is_closed":null}},{"id":"ID2019091Y8JDV3","type":"Feature","geometry":{"type":"Point","coordinates":[110.4223412,-7.1777994]},"properties":{"name":"PT Morich Indo Fashion","address":"Jl. Raya Karangjati Km 25 Gembongan Village Bergas District Semarang 50552","country_code":"ID","os_id":"ID2019091Y8JDV3","country_name":"Indonesia","has_approved_claim":false,"ppe_product_types":null,"ppe_contact_phone":null,"ppe_contact_email":null,"ppe_website":null,"is_closed":null}},{"id":"ID20200356HTR02","type":"Feature","geometry":{"type":"Point","coordinates":[110.4156982,-7.1733752]},"properties":{"name":"PT Semarang Garment","address":"Jl. Soekarno - Hatta KM. 25 Kelurahan Wujil Kecamatan Bergas Kabupaten Semarang 50552 Jawa Tengah Indonesia","country_code":"ID","os_id":"ID20200356HTR02","country_name":"Indonesia","has_approved_claim":false,"ppe_product_types":null,"ppe_contact_phone":null,"ppe_contact_email":null,"ppe_website":null,"is_closed":null}},{"id":"CN2019083Y56NQX","type":"Feature","geometry":{"type":"Point","coordinates":[119.077102,25.499776]},"properties":{"name":"Putian City Hanjiang District Zhangsheng Shoes Co., Ltd.","address":"Xinfeng Village, Wutang Town, Hanjiang District, Putian, Fukian","country_code":"CN","os_id":"CN2019083Y56NQX","country_name":"China","has_approved_claim":false,"ppe_product_types":null,"ppe_contact_phone":null,"ppe_contact_email":null,"ppe_website":null,"is_closed":null}},{"id":"IN20200530JBAW6","type":"Feature","geometry":{"type":"Point","coordinates":[77.1369235,11.0864647]},"properties":{"name":"Quantum Knits","address":"181, Kollupalayam, Arasur, Coimbatore  Tamil Nadu 641407","country_code":"IN","os_id":"IN20200530JBAW6","country_name":"India","has_approved_claim":false,"ppe_product_types":null,"ppe_contact_phone":null,"ppe_contact_email":null,"ppe_website":null,"is_closed":null}},{"id":"PT2020057ZYV8AY","type":"Feature","geometry":{"type":"Point","coordinates":[-8.5791258,41.5239287]},"properties":{"name":"QUINTA & SANTOS - SCORE S.A.","address":"RUA DA INDUSTRIA, 54 - VÁRZEA,4755-522,BARCELOS","country_code":"PT","os_id":"PT2020057ZYV8AY","country_name":"Portugal","has_approved_claim":false,"ppe_product_types":null,"ppe_contact_phone":null,"ppe_contact_email":null,"ppe_website":null,"is_closed":null}},{"id":"PK2021208Z238TG","type":"Feature","geometry":{"type":"Point","coordinates":[67.1522097,24.842828]},"properties":{"name":"Rajby Industries","address":"Plot # 77-78, Sector-27, Korangi Industrial Area, Karachi - 74 900, 74900","country_code":"PK","os_id":"PK2021208Z238TG","country_name":"Pakistan","has_approved_claim":true,"ppe_product_types":null,"ppe_contact_phone":null,"ppe_contact_email":null,"ppe_website":null,"is_closed":null}},{"id":"TR2020106B82RB9","type":"Feature","geometry":{"type":"Point","coordinates":[29.0538642,37.8313188]},"properties":{"name":"RATEKS","address":"BOZBURUN MAHALLESI 7050 SOKAK NO:3","country_code":"TR","os_id":"TR2020106B82RB9","country_name":"Türkiye","has_approved_claim":false,"ppe_product_types":null,"ppe_contact_phone":null,"ppe_contact_email":null,"ppe_website":null,"is_closed":null}},{"id":"IN201909878Z1SW","type":"Feature","geometry":{"type":"Point","coordinates":[77.011452,28.4239969]},"properties":{"name":"RCJC","address":"Plot No. 950/1, Behrampur Road, 38th Milestone, Delhi-Jaipur Highway, 122001 Gurgaon","country_code":"IN","os_id":"IN201909878Z1SW","country_name":"India","has_approved_claim":false,"ppe_product_types":null,"ppe_contact_phone":null,"ppe_contact_email":null,"ppe_website":null,"is_closed":null}},{"id":"CN201908503T5ZB","type":"Feature","geometry":{"type":"Point","coordinates":[113.940897,22.763872]},"properties":{"name":"Regina Miracle Intimate Apparel (Shenzhen) Ltd.","address":"No. 5 Cengyao Industrial Estate, Yulu, Gongming, Guangming New District, Shenzhen Shenzhen","country_code":"CN","os_id":"CN201908503T5ZB","country_name":"China","has_approved_claim":false,"ppe_product_types":null,"ppe_contact_phone":null,"ppe_contact_email":null,"ppe_website":null,"is_closed":null}},{"id":"BD20200212T3WAJ","type":"Feature","geometry":{"type":"Point","coordinates":[89.0334644,24.0918458]},"properties":{"name":"Renaissance Barind Ltd.","address":"Plot no. 62-68, 72-77, Ishwardi EPZ 6622 Ishwardi","country_code":"BD","os_id":"BD20200212T3WAJ","country_name":"Bangladesh","has_approved_claim":false,"ppe_product_types":null,"ppe_contact_phone":null,"ppe_contact_email":null,"ppe_website":null,"is_closed":null}},{"id":"IN20200535DZVT9","type":"Feature","geometry":{"type":"Point","coordinates":[77.299676,28.31475]},"properties":{"name":"R.M.P FAB SOURCING PVT. LTD.","address":"Plot No: 289, Sector: 58, Ballabgarh  Haryana 121004","country_code":"IN","os_id":"IN20200535DZVT9","country_name":"India","has_approved_claim":false,"ppe_product_types":null,"ppe_contact_phone":null,"ppe_contact_email":null,"ppe_website":null,"is_closed":null}},{"id":"BD2019100C9Z52E","type":"Feature","geometry":{"type":"Point","coordinates":[90.2700649,23.981904]},"properties":{"name":"R R WASHING LIMITED","address":"SARABO, KASHIMPUR ,GAZIPUR, INSIDE BEXIMCO LTD INDUSTRIAL PARK,  NEAR MOSQUE, VIKANPUR ,KASHIMPUR, Gazipur zila","country_code":"BD","os_id":"BD2019100C9Z52E","country_name":"Bangladesh","has_approved_claim":false,"ppe_product_types":null,"ppe_contact_phone":null,"ppe_contact_email":null,"ppe_website":null,"is_closed":null}},{"id":"TR20223010P5YQ0","type":"Feature","geometry":{"type":"Point","coordinates":[29.4957467,40.1000734]},"properties":{"name":"SANKO TEKS.İŞLETMELERİ SAN.VE TİC.A.Ş","address":"ORG.SAN.BÖLG.3.CAD., İNEGÖL, BURSA","country_code":"TR","os_id":"TR20223010P5YQ0","country_name":"Türkiye","has_approved_claim":false,"ppe_product_types":null,"ppe_contact_phone":null,"ppe_contact_email":null,"ppe_website":null,"is_closed":null}},{"id":"TR20190838VYMXF","type":"Feature","geometry":{"type":"Point","coordinates":[37.4401014,37.0866074]},"properties":{"name":"Sanko Tekstil Isl. San. Ve Tic. A.S.","address":"Organize Sanayi Subesi, 3. Organize Sanayi Bolgesi 83304 Nolu Cad 2, 27500Baspinar-Gaziantep","country_code":"TR","os_id":"TR20190838VYMXF","country_name":"Türkiye","has_approved_claim":false,"ppe_product_types":null,"ppe_contact_phone":null,"ppe_contact_email":null,"ppe_website":null,"is_closed":null}},{"id":"TR20190838X7DTG","type":"Feature","geometry":{"type":"Point","coordinates":[38.2827088,38.3457535]},"properties":{"name":"Santuk Tekstil San. Ve Tic. A.S. Malatya Subesi","address":"1. Organize Sanayi Bolgesi 1 Cadde No:9 Yesilyurt Malatya Malatya Malatya","country_code":"TR","os_id":"TR20190838X7DTG","country_name":"Türkiye","has_approved_claim":false,"ppe_product_types":null,"ppe_contact_phone":null,"ppe_contact_email":null,"ppe_website":null,"is_closed":null}},{"id":"BR2019086GBCWAV","type":"Feature","geometry":{"type":"Point","coordinates":[-47.7389328,-23.1481654]},"properties":{"name":"Selene Industria Textil S A","address":"R.Do Velho Ramal, 18520000, Cerquilho, Brazil","country_code":"BR","os_id":"BR2019086GBCWAV","country_name":"Brazil","has_approved_claim":false,"ppe_product_types":null,"ppe_contact_phone":null,"ppe_contact_email":null,"ppe_website":null,"is_closed":null}},{"id":"IN2019266NCB849","type":"Feature","geometry":{"type":"Point","coordinates":[75.651687,13.873563]},"properties":{"name":"SHAHI EXPORTS PRIVATE LIMITED - UNIT 101","address":"#156, KIADB Industrial Area, Nidige, Shivamogga –  577222 Karnataka","country_code":"IN","os_id":"IN2019266NCB849","country_name":"India","has_approved_claim":false,"ppe_product_types":null,"ppe_contact_phone":null,"ppe_contact_email":null,"ppe_website":null,"is_closed":null}},{"id":"IN2019083FKFM4Q","type":"Feature","geometry":{"type":"Point","coordinates":[77.3100025,28.437745]},"properties":{"name":"Shahi Exports Pvt. Ltd.","address":"Industrial Plot No. 1, Sector - 28 121008 Faridabad Faridabad Haryana","country_code":"IN","os_id":"IN2019083FKFM4Q","country_name":"India","has_approved_claim":false,"ppe_product_types":null,"ppe_contact_phone":null,"ppe_contact_email":null,"ppe_website":null,"is_closed":null}},{"id":"BD2019248MQTGPB","type":"Feature","geometry":{"type":"Point","coordinates":[90.3241266,23.9047026]},"properties":{"name":"Sharmin Apparels Ltd.","address":"Dhaka - Ashulia Road, Narashinghapur, Ashulia, Savar, Dhaka - 1341","country_code":"BD","os_id":"BD2019248MQTGPB","country_name":"Bangladesh","has_approved_claim":false,"ppe_product_types":null,"ppe_contact_phone":null,"ppe_contact_email":null,"ppe_website":null,"is_closed":null}},{"id":"BD201924859SQHF","type":"Feature","geometry":{"type":"Point","coordinates":[90.3459755,23.7690123]},"properties":{"name":"Shinest Apparels Ltd.","address":"Plot - 217/1, Azim Tower, Beribadh, Mohammadpur, Dhaka - 1207","country_code":"BD","os_id":"BD201924859SQHF","country_name":"Bangladesh","has_approved_claim":false,"ppe_product_types":null,"ppe_contact_phone":null,"ppe_contact_email":null,"ppe_website":null,"is_closed":null}},{"id":"TR2020078EGZA00","type":"Feature","geometry":{"type":"Point","coordinates":[36.5590413,40.3000971]},"properties":{"name":"Sik Makas Giyim San.Tic. A.S.","address":"Organize Sanayi Bolgesi Recep, Yazicioglu Bulvari No: 34/2, Kisim, Merkez, Tokat","country_code":"TR","os_id":"TR2020078EGZA00","country_name":"Türkiye","has_approved_claim":false,"ppe_product_types":null,"ppe_contact_phone":null,"ppe_contact_email":null,"ppe_website":null,"is_closed":null}},{"id":"BD2020066MYJG0A","type":"Feature","geometry":{"type":"Point","coordinates":[90.4195876,24.1701145]},"properties":{"name":"Silken Sewing Ltd - New building","address":"Baniarchala (Member Bari), Vobanipur Joydebpur, Gazipur Gazipur  Dhaka","country_code":"BD","os_id":"BD2020066MYJG0A","country_name":"Bangladesh","has_approved_claim":false,"ppe_product_types":null,"ppe_contact_phone":null,"ppe_contact_email":null,"ppe_website":null,"is_closed":true}},{"id":"BD2022007RM8M50","type":"Feature","geometry":{"type":"Point","coordinates":[90.42731649999999,24.1657388]},"properties":{"name":"SP Garments Limited","address":"Shirirchala, Mahona, Bhabanipur, Gazipur sadar, Gazipur,","country_code":"BD","os_id":"BD2022007RM8M50","country_name":"Bangladesh","has_approved_claim":false,"ppe_product_types":null,"ppe_contact_phone":null,"ppe_contact_email":null,"ppe_website":null,"is_closed":null}}]