[{"id":"BD2023011MX7NJE","type":"Feature","geometry":{"type":"Point","coordinates":[90.4809098,24.1996574]},"properties":{"name":"Aswad Composite MIills Ltd","address":"121, BERAIDERCHALA, BLOCK-H, SREEPUR, GAZIPUR, BANGLADESH","country_code":"BD","os_id":"BD2023011MX7NJE","country_name":"Bangladesh","has_approved_claim":false,"ppe_product_types":null,"ppe_contact_phone":null,"ppe_contact_email":null,"ppe_website":null,"is_closed":null}},{"id":"BD201924856NNVG","type":"Feature","geometry":{"type":"Point","coordinates":[90.250352,24.0153083]},"properties":{"name":"Aswad Composite Mills Ltd.","address":"Kabirpur, Ashulia, Savar, Dhaka - 1345","country_code":"BD","os_id":"BD201924856NNVG","country_name":"Bangladesh","has_approved_claim":false,"ppe_product_types":null,"ppe_contact_phone":null,"ppe_contact_email":null,"ppe_website":null,"is_closed":null}},{"id":"TR2020218TAAYZ0","type":"Feature","geometry":{"type":"Point","coordinates":[28.80874,41.08012]},"properties":{"name":"A-TEX TEKSTİL TİC.LTD.ŞTİ","address":"İOSB MH.ESKİ TURGUT ÖZAL CD. NO:31/301, 34490, İKİTELLİ, İSTANBUL","country_code":"TR","os_id":"TR2020218TAAYZ0","country_name":"Türkiye","has_approved_claim":false,"ppe_product_types":null,"ppe_contact_phone":null,"ppe_contact_email":null,"ppe_website":null,"is_closed":null}},{"id":"US2019098NPXE3Y","type":"Feature","geometry":{"type":"Point","coordinates":[-80.1716818,26.0800107]},"properties":{"name":"ATLAS EMBROIDERY & SCREEN PRINTING","address":"2300 SW 34TH ST,FT. LAUDERDALE,Florida,United States","country_code":"US","os_id":"US2019098NPXE3Y","country_name":"United States","has_approved_claim":false,"ppe_product_types":null,"ppe_contact_phone":null,"ppe_contact_email":null,"ppe_website":null,"is_closed":null}},{"id":"BD2019086DTSY86","type":"Feature","geometry":{"type":"Point","coordinates":[90.4054498,23.7657287]},"properties":{"name":"A TO Z Printing Ltd.","address":"221/A  Tejgaon Industrial Area, 1208, Dhaka, Bangladesh","country_code":"BD","os_id":"BD2019086DTSY86","country_name":"Bangladesh","has_approved_claim":false,"ppe_product_types":null,"ppe_contact_phone":null,"ppe_contact_email":null,"ppe_website":null,"is_closed":null}},{"id":"TR20191723AKA9F","type":"Feature","geometry":{"type":"Point","coordinates":[27.9796094,41.3101834]},"properties":{"name":"Att Tekstil San.Tic.A.S.","address":"Gazi Osman Pasa mah. Fatih Bulvari 1, 59500, Cerkezköy, Tekirdag","country_code":"TR","os_id":"TR20191723AKA9F","country_name":"Türkiye","has_approved_claim":false,"ppe_product_types":null,"ppe_contact_phone":null,"ppe_contact_email":null,"ppe_website":null,"is_closed":null}},{"id":"MA2022039BQMA77","type":"Feature","geometry":{"type":"Point","coordinates":[-5.8130518,35.7864824]},"properties":{"name":"Ava Marie SARL","address":"Zone Industrielle Gzenaya Lot N° 174 RDC  1 er Etage","country_code":"MA","os_id":"MA2022039BQMA77","country_name":"Morocco","has_approved_claim":false,"ppe_product_types":null,"ppe_contact_phone":null,"ppe_contact_email":null,"ppe_website":null,"is_closed":null}},{"id":"TR20221163BEFZY","type":"Feature","geometry":{"type":"Point","coordinates":[28.7946114,41.0944297]},"properties":{"name":"AVCI TEKSTİL  SAN VE TİC A.Ş.","address":"Doğu sanayi sitesi2 Blok No:17  Yenibosna Istanbul 34197","country_code":"TR","os_id":"TR20221163BEFZY","country_name":"Türkiye","has_approved_claim":false,"ppe_product_types":null,"ppe_contact_phone":null,"ppe_contact_email":null,"ppe_website":null,"is_closed":null}},{"id":"IT20223352J4VFG","type":"Feature","geometry":{"type":"Point","coordinates":[13.6789671,42.8453516]},"properties":{"name":"AVERY DENNISON RIS ITALIA SRL","address":"Strada Prov. Bonifica 39-41","country_code":"IT","os_id":"IT20223352J4VFG","country_name":"Italy","has_approved_claim":false,"ppe_product_types":null,"ppe_contact_phone":null,"ppe_contact_email":null,"ppe_website":null,"is_closed":null}},{"id":"KH2021134B4JSME","type":"Feature","geometry":{"type":"Point","coordinates":[104.8901761,11.5196972]},"properties":{"name":"AWTEX Garment Co.LTD","address":"St.13D,Sambour Village,Sangkat Dangkor,Khan Dangkor,Phnom Penh","country_code":"KH","os_id":"KH2021134B4JSME","country_name":"Cambodia","has_approved_claim":false,"ppe_product_types":null,"ppe_contact_phone":null,"ppe_contact_email":null,"ppe_website":null,"is_closed":null}},{"id":"BD20211590EA871","type":"Feature","geometry":{"type":"Point","coordinates":[90.441039,24.2112968]},"properties":{"name":"Axis Knitwears Ltd","address":"Mawna,Sreepur,Gazipur, Gazipur","country_code":"BD","os_id":"BD20211590EA871","country_name":"Bangladesh","has_approved_claim":false,"ppe_product_types":null,"ppe_contact_phone":null,"ppe_contact_email":null,"ppe_website":null,"is_closed":null}},{"id":"TR2021182RHCNBB","type":"Feature","geometry":{"type":"Point","coordinates":[28.813863,41.02437]},"properties":{"name":"AYTEKS TEKSTIL EMPRIME SAN.TIC.LTD.STI","address":"BAGLAR MAH., YALÇIN KORES CAD NO:6 KAT:3, GÜNESLI-BAGCILAR/ISTANBUL, Istanbul, 34212","country_code":"TR","os_id":"TR2021182RHCNBB","country_name":"Türkiye","has_approved_claim":false,"ppe_product_types":null,"ppe_contact_phone":null,"ppe_contact_email":null,"ppe_website":null,"is_closed":null}},{"id":"TR2020034CEVTAA","type":"Feature","geometry":{"type":"Point","coordinates":[28.822348,41.0582909]},"properties":{"name":"AY-TIM TEKSTIL SAN. VE DIS TIC. A.S.","address":"MAHMUTBEY MAH. HACI BOSTAN CAD. NO:9 BAGCILAR/ISTANBUL","country_code":"TR","os_id":"TR2020034CEVTAA","country_name":"Türkiye","has_approved_claim":true,"ppe_product_types":null,"ppe_contact_phone":null,"ppe_contact_email":null,"ppe_website":null,"is_closed":null}},{"id":"TR2020191KHZNW9","type":"Feature","geometry":{"type":"Point","coordinates":[28.82011,41.04514]},"properties":{"name":"Ayyildiz Dokuma Kumas Paz. San. ve Tic. A.S","address":"15 TEMMUZ MAH. HALKALI CAD. 1432 SOK. NO: 2-8A GUNESLI BAGCILAR, ISTANBUL","country_code":"TR","os_id":"TR2020191KHZNW9","country_name":"Türkiye","has_approved_claim":false,"ppe_product_types":null,"ppe_contact_phone":null,"ppe_contact_email":null,"ppe_website":null,"is_closed":null}},{"id":"IT2020191XQXQG4","type":"Feature","geometry":{"type":"Point","coordinates":[8.7822231,45.6466803]},"properties":{"name":"AZIENDA FODERAMI DRAGONI SPA","address":"VIA LUIGI VASCHI 10, GALLARATE (VARESE)","country_code":"IT","os_id":"IT2020191XQXQG4","country_name":"Italy","has_approved_claim":false,"ppe_product_types":null,"ppe_contact_phone":null,"ppe_contact_email":null,"ppe_website":null,"is_closed":null}},{"id":"BD2019248BPNNS4","type":"Feature","geometry":{"type":"Point","coordinates":[90.3846445,23.7581418]},"properties":{"name":"Azim & Son (Pvt.) Ltd.","address":"36/A, Indira Road, Dhaka - 1215","country_code":"BD","os_id":"BD2019248BPNNS4","country_name":"Bangladesh","has_approved_claim":false,"ppe_product_types":null,"ppe_contact_phone":null,"ppe_contact_email":null,"ppe_website":null,"is_closed":null}},{"id":"TR20211943AEAA8","type":"Feature","geometry":{"type":"Point","coordinates":[29.2163978,40.9100428]},"properties":{"name":"Azim Tekstil Konfeksiyon Gida Turizm Dis Sanayi Tic Ltd Sti","address":"Cumhuriyet Mah. Cetin Sk. No:6 Kartal, Istanbul","country_code":"TR","os_id":"TR20211943AEAA8","country_name":"Türkiye","has_approved_claim":false,"ppe_product_types":null,"ppe_contact_phone":null,"ppe_contact_email":null,"ppe_website":null,"is_closed":null}},{"id":"BR2019107B56B2B","type":"Feature","geometry":{"type":"Point","coordinates":[-45.8477399,-22.025537]},"properties":{"name":"AZZURRA CONFECCOES LTDA","address":"R JOFRE MAGALHAES\nTEIXEIRA, 113 - Silvianopolis, MG","country_code":"BR","os_id":"BR2019107B56B2B","country_name":"Brazil","has_approved_claim":false,"ppe_product_types":null,"ppe_contact_phone":null,"ppe_contact_email":null,"ppe_website":null,"is_closed":null}},{"id":"BD2019276CAB0EG","type":"Feature","geometry":{"type":"Point","coordinates":[90.3865674,24.3015275]},"properties":{"name":"Badsha Textiles Ltd.","address":"jamirdia, bhaluka upazila, 2240, mymensingh, bhaluka, mymensingh","country_code":"BD","os_id":"BD2019276CAB0EG","country_name":"Bangladesh","has_approved_claim":false,"ppe_product_types":null,"ppe_contact_phone":null,"ppe_contact_email":null,"ppe_website":null,"is_closed":null}},{"id":"BD2019176F0WCH8","type":"Feature","geometry":{"type":"Point","coordinates":[90.2280153,23.9602309]},"properties":{"name":"Baek Doo Korea Ltd","address":"Village: Farok Nagar, Post: Dhamsona, Upozila Ashulia Dhaka None","country_code":"BD","os_id":"BD2019176F0WCH8","country_name":"Bangladesh","has_approved_claim":false,"ppe_product_types":null,"ppe_contact_phone":null,"ppe_contact_email":null,"ppe_website":null,"is_closed":null}},{"id":"BD2020191YWTDWJ","type":"Feature","geometry":{"type":"Point","coordinates":[90.3771747,24.3315374]},"properties":{"name":"Baly Yarn Dyeing Ltd","address":"154, Laban Khota, Hobirbari Union, Seed Store Bazar, P.S. Bhaluka, Mymensingh","country_code":"BD","os_id":"BD2020191YWTDWJ","country_name":"Bangladesh","has_approved_claim":false,"ppe_product_types":null,"ppe_contact_phone":null,"ppe_contact_email":null,"ppe_website":null,"is_closed":null}},{"id":"LK2019086VA40F9","type":"Feature","geometry":{"type":"Point","coordinates":[80.8562448,6.0849747]},"properties":{"name":"BAM Exports (Pvt) LTD","address":"Wadigala, 82125, Ranna, Sri Lanka","country_code":"LK","os_id":"LK2019086VA40F9","country_name":"Sri Lanka","has_approved_claim":false,"ppe_product_types":null,"ppe_contact_phone":null,"ppe_contact_email":null,"ppe_website":null,"is_closed":null}},{"id":"IN2021012H6KB1N","type":"Feature","geometry":{"type":"Point","coordinates":[76.9173539,28.3675847]},"properties":{"name":"Banox Exim (Gurgaon)","address":"Plot No:19, SEC4, IMT Manesar, Gurgaon, Haryana","country_code":"IN","os_id":"IN2021012H6KB1N","country_name":"India","has_approved_claim":true,"ppe_product_types":null,"ppe_contact_phone":null,"ppe_contact_email":null,"ppe_website":null,"is_closed":null}},{"id":"TR20211162816AE","type":"Feature","geometry":{"type":"Point","coordinates":[28.863753,41.056004]},"properties":{"name":"Baris Triko Ve Tekstil / Özcan Boga","address":"Yildiztepe Mah. 462 Sok. 4 21, Bagcilar, Istanbul, Istanbul","country_code":"TR","os_id":"TR20211162816AE","country_name":"Türkiye","has_approved_claim":false,"ppe_product_types":null,"ppe_contact_phone":null,"ppe_contact_email":null,"ppe_website":null,"is_closed":null}},{"id":"BD2020021WN3ZAA","type":"Feature","geometry":{"type":"Point","coordinates":[90.50004039999999,23.6237764]},"properties":{"name":"Barnali Textile & Printing Industries (Pvt.) Ltd.","address":"285, (147/3 New) Hazaribag, Godnail, Narayanganj 1432 Narayanganj","country_code":"BD","os_id":"BD2020021WN3ZAA","country_name":"Bangladesh","has_approved_claim":false,"ppe_product_types":null,"ppe_contact_phone":null,"ppe_contact_email":null,"ppe_website":null,"is_closed":null}},{"id":"BD2019248W7C66V","type":"Feature","geometry":{"type":"Point","coordinates":[90.2680347,23.798635]},"properties":{"name":"Basundhara Garments Ltd.","address":"Plot - 230-231, Nazim Tower, Singair Road, Hemayetpur, Savar, Dhaka - 1340","country_code":"BD","os_id":"BD2019248W7C66V","country_name":"Bangladesh","has_approved_claim":false,"ppe_product_types":null,"ppe_contact_phone":null,"ppe_contact_email":null,"ppe_website":null,"is_closed":null}},{"id":"BR2019086NBAH4D","type":"Feature","geometry":{"type":"Point","coordinates":[-44.99508,-19.8757293]},"properties":{"name":"Batatinha Industria De Calcadosltda","address":"R.Padre Liberio, 35519000, Nova Serrana, Brazil","country_code":"BR","os_id":"BR2019086NBAH4D","country_name":"Brazil","has_approved_claim":false,"ppe_product_types":null,"ppe_contact_phone":null,"ppe_contact_email":null,"ppe_website":null,"is_closed":null}},{"id":"TR2020084VJHFHM","type":"Feature","geometry":{"type":"Point","coordinates":[29.816719,40.756048]},"properties":{"name":"BATEKS IC GIYIM SAN VE TIC. LTD.STI  (KORFEZ BRANCH)","address":"HURRIYET CAD., DUMLU PINAR MAH.  NO: 269 DERINCE 41900, KOCAELI","country_code":"TR","os_id":"TR2020084VJHFHM","country_name":"Türkiye","has_approved_claim":false,"ppe_product_types":null,"ppe_contact_phone":null,"ppe_contact_email":null,"ppe_website":null,"is_closed":null}},{"id":"BR20212538FSKHQ","type":"Feature","geometry":{"type":"Point","coordinates":[-46.5364335,-23.5590991]},"properties":{"name":"B. Dias Confecções Ltda","address":"Frei Orlando, 262, Vila Santa Isabel, Sao Paulo","country_code":"BR","os_id":"BR20212538FSKHQ","country_name":"Brazil","has_approved_claim":false,"ppe_product_types":null,"ppe_contact_phone":null,"ppe_contact_email":null,"ppe_website":null,"is_closed":null}},{"id":"GB20191811EN4DM","type":"Feature","geometry":{"type":"Point","coordinates":[0.2232116,52.3837929]},"properties":{"name":"Beams Packaging Services Ltd","address":"Unit 57 Lancaster Business Park Ely Cambridgeshire","country_code":"GB","os_id":"GB20191811EN4DM","country_name":"United Kingdom","has_approved_claim":false,"ppe_product_types":null,"ppe_contact_phone":null,"ppe_contact_email":null,"ppe_website":null,"is_closed":null}},{"id":"CN2020191D5DQK9","type":"Feature","geometry":{"type":"Point","coordinates":[116.631979,40.316304]},"properties":{"name":"Beijing Aikon Textiles Co.Ltd","address":"NO.3 south Industrial Development Zone Yan Xi, Huai Rou Beijing China, Beijing","country_code":"CN","os_id":"CN2020191D5DQK9","country_name":"China","has_approved_claim":false,"ppe_product_types":null,"ppe_contact_phone":null,"ppe_contact_email":null,"ppe_website":null,"is_closed":null}},{"id":"BR2019086PK6AW3","type":"Feature","geometry":{"type":"Point","coordinates":[-49.4714324,-23.0123457]},"properties":{"name":"Bela Confecções De Jeans Ltda Me","address":"Av. Coronel Albino Alves Rocha, 1061 Bernardino De Campos  18960-000","country_code":"BR","os_id":"BR2019086PK6AW3","country_name":"Brazil","has_approved_claim":false,"ppe_product_types":null,"ppe_contact_phone":null,"ppe_contact_email":null,"ppe_website":null,"is_closed":null}},{"id":"BD201924819WHF6","type":"Feature","geometry":{"type":"Point","coordinates":[90.4131072,23.8928706]},"properties":{"name":"Bellissima Apparels Ltd.","address":"Shopping Area (3rd Floor), BSCIC Industrial Estate Road, BSCIC Industrial Estate, Tongi, Gazipur-1710","country_code":"BD","os_id":"BD201924819WHF6","country_name":"Bangladesh","has_approved_claim":false,"ppe_product_types":null,"ppe_contact_phone":null,"ppe_contact_email":null,"ppe_website":null,"is_closed":null}},{"id":"CN2020325HBER89","type":"Feature","geometry":{"type":"Point","coordinates":[118.0962053,24.5110382]},"properties":{"name":"Bellmart Kingtai Industrial Xiamen | Great King Group","address":"4th and 5th Floor, No. 10, Huli Industrial District  Xiamen Fujian","country_code":"CN","os_id":"CN2020325HBER89","country_name":"China","has_approved_claim":false,"ppe_product_types":null,"ppe_contact_phone":null,"ppe_contact_email":null,"ppe_website":null,"is_closed":null}},{"id":"BR2020191KC862J","type":"Feature","geometry":{"type":"Point","coordinates":[-49.145313,-26.901313]},"properties":{"name":"Bembordados Ind.Confecções Ltda","address":"Rua Bahia\n7849, Blumenau","country_code":"BR","os_id":"BR2020191KC862J","country_name":"Brazil","has_approved_claim":false,"ppe_product_types":null,"ppe_contact_phone":null,"ppe_contact_email":null,"ppe_website":null,"is_closed":null}},{"id":"KH2019086VJQKEJ","type":"Feature","geometry":{"type":"Point","coordinates":[104.8246027,11.5333135]},"properties":{"name":"Berry Apparel (Cambodia) Co. Ltd","address":"Phum Chumpou Voin, Sangkat Chom Chao, Khan Posenchey, 12405, Phnom Penh, Cambodia","country_code":"KH","os_id":"KH2019086VJQKEJ","country_name":"Cambodia","has_approved_claim":false,"ppe_product_types":null,"ppe_contact_phone":null,"ppe_contact_email":null,"ppe_website":null,"is_closed":null}},{"id":"TR2019172FBFDBX","type":"Feature","geometry":{"type":"Point","coordinates":[28.816616,41.028288]},"properties":{"name":"Berteks Konf","address":"Mamutbey Mah.Soğuksu Cad.No:22 Kat:2-3-4-5 Gözde Iş Merkezi Bağcilar Istanbul 34212 Istanbul","country_code":"TR","os_id":"TR2019172FBFDBX","country_name":"Türkiye","has_approved_claim":false,"ppe_product_types":null,"ppe_contact_phone":null,"ppe_contact_email":null,"ppe_website":null,"is_closed":null}},{"id":"IT2019091ZNF8WT","type":"Feature","geometry":{"type":"Point","coordinates":[8.7699868,45.6889572]},"properties":{"name":"BESANI SRL","address":"VIA PER GALLARATE 50/A - 21010 BESNATE VA","country_code":"IT","os_id":"IT2019091ZNF8WT","country_name":"Italy","has_approved_claim":true,"ppe_product_types":null,"ppe_contact_phone":null,"ppe_contact_email":null,"ppe_website":null,"is_closed":null}},{"id":"MM2019091BM3F23","type":"Feature","geometry":{"type":"Point","coordinates":[96.0946236,16.947672]},"properties":{"name":"Best Hubo Company Ltd.","address":"Plot No. 7/8 U Myuu Street Myay Taing Block No. 65 (Settmu) Industrial Zone 4 Shwe Pyi Thar Township Yangon","country_code":"MM","os_id":"MM2019091BM3F23","country_name":"Myanmar","has_approved_claim":false,"ppe_product_types":null,"ppe_contact_phone":null,"ppe_contact_email":null,"ppe_website":null,"is_closed":null}},{"id":"CN2019083RAXSXX","type":"Feature","geometry":{"type":"Point","coordinates":[114.28134,22.741319]},"properties":{"name":"Best Trendy Cooperation Ltd","address":"A121 No 2 Lianfeng Road Xinsheng Community Longgang District Shenzhen City Guangdong Province","country_code":"CN","os_id":"CN2019083RAXSXX","country_name":"China","has_approved_claim":false,"ppe_product_types":null,"ppe_contact_phone":null,"ppe_contact_email":null,"ppe_website":null,"is_closed":null}},{"id":"CN2020085FEZJ6P","type":"Feature","geometry":{"type":"Point","coordinates":[120.537108,32.4120379]},"properties":{"name":"BESTWAY (NANTONG) RECREATION CORP","address":"NO. 8 WEST HUIMIN ROAD, RUGAO ECONOMIC DEVELOPMENT ZONE JIANGSU JIANGSU CHINA 226503","country_code":"CN","os_id":"CN2020085FEZJ6P","country_name":"China","has_approved_claim":false,"ppe_product_types":null,"ppe_contact_phone":null,"ppe_contact_email":null,"ppe_website":null,"is_closed":null}},{"id":"TR20201484X3050","type":"Feature","geometry":{"type":"Point","coordinates":[29.3981953,40.8860238]},"properties":{"name":"Bff Kozmetik AS","address":"Aydınlı KOSB Mahallesi Melek Aras Bulvarı KOSB Sitesi No 63 Tuzla Istanbul 34953","country_code":"TR","os_id":"TR20201484X3050","country_name":"Türkiye","has_approved_claim":false,"ppe_product_types":null,"ppe_contact_phone":null,"ppe_contact_email":null,"ppe_website":null,"is_closed":null}},{"id":"IN2019098X1A3YX","type":"Feature","geometry":{"type":"Point","coordinates":[77.0843368,28.5115543]},"properties":{"name":"Bharat Expo International","address":"Plot No 189, Udyog Vihar, Phase 1, Gurugram, Haryana, 122016","country_code":"IN","os_id":"IN2019098X1A3YX","country_name":"India","has_approved_claim":false,"ppe_product_types":null,"ppe_contact_phone":null,"ppe_contact_email":null,"ppe_website":null,"is_closed":null}},{"id":"DE2019083J6T7MD","type":"Feature","geometry":{"type":"Point","coordinates":[7.5997736,52.0904141]},"properties":{"name":"Biederlack Hermann GmbH & Co. KG","address":"Biederlackstr. 21, 48268 Greven","country_code":"DE","os_id":"DE2019083J6T7MD","country_name":"Germany","has_approved_claim":false,"ppe_product_types":null,"ppe_contact_phone":null,"ppe_contact_email":null,"ppe_website":null,"is_closed":null}},{"id":"IT20200530GJFGA","type":"Feature","geometry":{"type":"Point","coordinates":[8.0061425,45.52347839999999]},"properties":{"name":"Biella Manifatture Tessili","address":"Via XXIV Maggio 4   13888","country_code":"IT","os_id":"IT20200530GJFGA","country_name":"Italy","has_approved_claim":false,"ppe_product_types":null,"ppe_contact_phone":null,"ppe_contact_email":null,"ppe_website":null,"is_closed":null}},{"id":"US2019085GFAQHJ","type":"Feature","geometry":{"type":"Point","coordinates":[-96.830947,32.93669]},"properties":{"name":"BIG GAME SPORTS","address":"13835 WELCH RD DALLAS TEXAS 75244","country_code":"US","os_id":"US2019085GFAQHJ","country_name":"United States","has_approved_claim":false,"ppe_product_types":null,"ppe_contact_phone":null,"ppe_contact_email":null,"ppe_website":null,"is_closed":null}},{"id":"CN2019097R200GQ","type":"Feature","geometry":{"type":"Point","coordinates":[119.82083,33.990334]},"properties":{"name":"Binhai Sales Co., Ltd.","address":"Section 2, Batan Village, Batan Town, Binhai County, Yancheng City, Jiangsu Province","country_code":"CN","os_id":"CN2019097R200GQ","country_name":"China","has_approved_claim":false,"ppe_product_types":null,"ppe_contact_phone":null,"ppe_contact_email":null,"ppe_website":null,"is_closed":null}},{"id":"BD2021090H4SKRD","type":"Feature","geometry":{"type":"Point","coordinates":[90.4009704,23.7553502]},"properties":{"name":"Binoda Knitwear Limited","address":"Head office : 122/A, Tejgaon I/A, Dhaka-1208, Bangladesh.\nFacotry : Zangalia Para, Bhawal Mirzapur, Gazipur, Bangladesh.","country_code":"BD","os_id":"BD2021090H4SKRD","country_name":"Bangladesh","has_approved_claim":false,"ppe_product_types":null,"ppe_contact_phone":null,"ppe_contact_email":null,"ppe_website":null,"is_closed":null}},{"id":"BD20190831NHEAW","type":"Feature","geometry":{"type":"Point","coordinates":[90.2784385,23.9325782]},"properties":{"name":"Birds Garments (Unit 2)","address":"113 Baipail Ashulia Savar Dhaka-1349","country_code":"BD","os_id":"BD20190831NHEAW","country_name":"Bangladesh","has_approved_claim":false,"ppe_product_types":null,"ppe_contact_phone":null,"ppe_contact_email":null,"ppe_website":null,"is_closed":null}},{"id":"IN2020191F4ANB3","type":"Feature","geometry":{"type":"Point","coordinates":[77.4964857,28.5114921]},"properties":{"name":"BIR HORIZONS","address":"F-79 , SITE B , INDUSTRIAL AREA ,\nSURAJ PUR, GREATER  NOIDA","country_code":"IN","os_id":"IN2020191F4ANB3","country_name":"India","has_approved_claim":false,"ppe_product_types":null,"ppe_contact_phone":null,"ppe_contact_email":null,"ppe_website":null,"is_closed":null}}]