[{"id":"CN20191711JYPN2","type":"Feature","geometry":{"type":"Point","coordinates":[120.368949,36.234207]},"properties":{"name":"Coats Qingdao Ltd.","address":"5 Longhai Road, Qingdao Huanhai Economic Zone, Chengyang District Qingdao  Shandong","country_code":"CN","os_id":"CN20191711JYPN2","country_name":"China","has_approved_claim":false,"ppe_product_types":null,"ppe_contact_phone":null,"ppe_contact_email":null,"ppe_website":null,"is_closed":null}},{"id":"BR2020191Z3FRV7","type":"Feature","geometry":{"type":"Point","coordinates":[-51.9816333,-23.4338033]},"properties":{"name":"Cocamar Cooperativa Agroindustrial","address":"Number 1000, Estrada Oswaldo de Moraes Corrêa, Maringá","country_code":"BR","os_id":"BR2020191Z3FRV7","country_name":"Brazil","has_approved_claim":false,"ppe_product_types":null,"ppe_contact_phone":null,"ppe_contact_email":null,"ppe_website":null,"is_closed":null}},{"id":"PE201908375VT1E","type":"Feature","geometry":{"type":"Point","coordinates":[-77.06699290000002,-11.9549531]},"properties":{"name":"COFACO Industries SAC","address":"Ave. San Andres 6299,Lima","country_code":"PE","os_id":"PE201908375VT1E","country_name":"Peru","has_approved_claim":false,"ppe_product_types":null,"ppe_contact_phone":null,"ppe_contact_email":null,"ppe_website":null,"is_closed":null}},{"id":"BR20202530NEA3J","type":"Feature","geometry":{"type":"Point","coordinates":[-50.2860294,-23.7725702]},"properties":{"name":"Colinas Jeans Ltda Me","address":"R. Padre Estevam Szulk, 835, 84900000, Ibaiti,","country_code":"BR","os_id":"BR20202530NEA3J","country_name":"Brazil","has_approved_claim":false,"ppe_product_types":null,"ppe_contact_phone":null,"ppe_contact_email":null,"ppe_website":null,"is_closed":null}},{"id":"BD2019091ZKVVVZ","type":"Feature","geometry":{"type":"Point","coordinates":[90.380132,23.9504063]},"properties":{"name":"Colossus Apparel Limited unit 2","address":"Mogorkhal, Chowrasta National University, Gazipur Sadar, Gazipur, Bangladesh","country_code":"BD","os_id":"BD2019091ZKVVVZ","country_name":"Bangladesh","has_approved_claim":false,"ppe_product_types":null,"ppe_contact_phone":null,"ppe_contact_email":null,"ppe_website":null,"is_closed":null}},{"id":"GB2020351FNQXCT","type":"Feature","geometry":{"type":"Point","coordinates":[-1.1163398,52.642856]},"properties":{"name":"COLOUR POINT LTD","address":"48 COBDEN STREET  LEICESTER LE1 2LB","country_code":"GB","os_id":"GB2020351FNQXCT","country_name":"United Kingdom","has_approved_claim":false,"ppe_product_types":null,"ppe_contact_phone":null,"ppe_contact_email":null,"ppe_website":null,"is_closed":null}},{"id":"BD20203282YY3TJ","type":"Feature","geometry":{"type":"Point","coordinates":[90.1050557,24.1052534]},"properties":{"name":"Comfit Composite Knit ( extension) Ltd","address":"Gorai Mirzapur Tangail, Dhala, Dhaka","country_code":"BD","os_id":"BD20203282YY3TJ","country_name":"Bangladesh","has_approved_claim":false,"ppe_product_types":null,"ppe_contact_phone":null,"ppe_contact_email":null,"ppe_website":null,"is_closed":null}},{"id":"BD2019086GTKP8V","type":"Feature","geometry":{"type":"Point","coordinates":[90.297484,24.025462]},"properties":{"name":"Comfit Composite Knit Ltd - Unit 3","address":"Vannara Road, 1751, Gazipur, Bangladesh","country_code":"BD","os_id":"BD2019086GTKP8V","country_name":"Bangladesh","has_approved_claim":false,"ppe_product_types":null,"ppe_contact_phone":null,"ppe_contact_email":null,"ppe_website":null,"is_closed":null}},{"id":"PK2020084P1BDB5","type":"Feature","geometry":{"type":"Point","coordinates":[74.3264869,31.446742]},"properties":{"name":"COMFORT KNITWEAR (PVT) LTD. - UNIT 1","address":"45 INDUSTRIAL ESTATE, KOT LAKHPAT 54770, LAHORE","country_code":"PK","os_id":"PK2020084P1BDB5","country_name":"Pakistan","has_approved_claim":false,"ppe_product_types":null,"ppe_contact_phone":null,"ppe_contact_email":null,"ppe_website":null,"is_closed":null}},{"id":"IT2020053KW76W1","type":"Feature","geometry":{"type":"Point","coordinates":[10.7642245,43.7004165]},"properties":{"name":"Conceria INCAS S.p.A.","address":"via enrico mattei 11   56022","country_code":"IT","os_id":"IT2020053KW76W1","country_name":"Italy","has_approved_claim":false,"ppe_product_types":null,"ppe_contact_phone":null,"ppe_contact_email":null,"ppe_website":null,"is_closed":null}},{"id":"CN20200226KJGF3","type":"Feature","geometry":{"type":"Point","coordinates":[120.829417,31.358841]},"properties":{"name":"Concordia Advanced Fabrics","address":"No.12 Linjiang Road, Weiting SIP,215121,Suzhou","country_code":"CN","os_id":"CN20200226KJGF3","country_name":"China","has_approved_claim":false,"ppe_product_types":null,"ppe_contact_phone":null,"ppe_contact_email":null,"ppe_website":null,"is_closed":null}},{"id":"BR2021260BBQPMR","type":"Feature","geometry":{"type":"Point","coordinates":[-36.6600363,-6.6923418]},"properties":{"name":"CONFECCAO G. B. DA SILVA JUNIOR & CIA LTDA","address":"R IVONETE COSTA, 75 -\nParelhas, RN","country_code":"BR","os_id":"BR2021260BBQPMR","country_name":"Brazil","has_approved_claim":false,"ppe_product_types":null,"ppe_contact_phone":null,"ppe_contact_email":null,"ppe_website":null,"is_closed":null}},{"id":"BR2021127NZRKRT","type":"Feature","geometry":{"type":"Point","coordinates":[-48.9023399,-26.9915142]},"properties":{"name":"CONFECCOES ANDRITEX LTDA EPP","address":"RUA FORTUNATO GABRIEL MELATO, 600, BATEIAS, GASPAR","country_code":"BR","os_id":"BR2021127NZRKRT","country_name":"Brazil","has_approved_claim":false,"ppe_product_types":null,"ppe_contact_phone":null,"ppe_contact_email":null,"ppe_website":null,"is_closed":null}},{"id":"PT20202683X7A1A","type":"Feature","geometry":{"type":"Point","coordinates":[-8.3080965,41.4994737]},"properties":{"name":"Confecçoes cunha & ribeiro, Lda.","address":"Rua Francsisco Lima Junior,\n151 4800-840 Sao Salvador de Souto Guimaraes, Portugal","country_code":"PT","os_id":"PT20202683X7A1A","country_name":"Portugal","has_approved_claim":false,"ppe_product_types":null,"ppe_contact_phone":null,"ppe_contact_email":null,"ppe_website":null,"is_closed":null}},{"id":"BR2021253SKTBZK","type":"Feature","geometry":{"type":"Point","coordinates":[-49.4366586,-28.7516489]},"properties":{"name":"Confecções Duplo Sentido Ltda.","address":"Gabriel Arns, 2956, Ouro Negro, Forquilhinha","country_code":"BR","os_id":"BR2021253SKTBZK","country_name":"Brazil","has_approved_claim":false,"ppe_product_types":null,"ppe_contact_phone":null,"ppe_contact_email":null,"ppe_website":null,"is_closed":null}},{"id":"BR20190860F01MJ","type":"Feature","geometry":{"type":"Point","coordinates":[-49.5410254,-27.0473815]},"properties":{"name":"Confeccoes Filan Ltda","address":"R. Guarani, 978, 89140000, Ibirama, Brazil","country_code":"BR","os_id":"BR20190860F01MJ","country_name":"Brazil","has_approved_claim":false,"ppe_product_types":null,"ppe_contact_phone":null,"ppe_contact_email":null,"ppe_website":null,"is_closed":null}},{"id":"BR2020034Q1GQ20","type":"Feature","geometry":{"type":"Point","coordinates":[-50.4938137,-20.8731336]},"properties":{"name":"Confecções Guzzo de Major Prado Ltda","address":"Rua João Patrizzi, 465,16130000,Santo Antônio do Aracanguá","country_code":"BR","os_id":"BR2020034Q1GQ20","country_name":"Brazil","has_approved_claim":false,"ppe_product_types":null,"ppe_contact_phone":null,"ppe_contact_email":null,"ppe_website":null,"is_closed":null}},{"id":"BR2019107EQ5RDQ","type":"Feature","geometry":{"type":"Point","coordinates":[-50.661159,-20.641998]},"properties":{"name":"Confeccoes Guzzo Ltda - Me","address":"R. Jose Candido De Moraes, 10, 15355000, Guzolandia, Brazil","country_code":"BR","os_id":"BR2019107EQ5RDQ","country_name":"Brazil","has_approved_claim":false,"ppe_product_types":null,"ppe_contact_phone":null,"ppe_contact_email":null,"ppe_website":null,"is_closed":null}},{"id":"BR20212537WHA45","type":"Feature","geometry":{"type":"Point","coordinates":[-49.5494151,-27.019501]},"properties":{"name":"CONFECCOES J M S LTDA","address":"EST GERAL, SN, RIO RAFAEL, Ibirama","country_code":"BR","os_id":"BR20212537WHA45","country_name":"Brazil","has_approved_claim":false,"ppe_product_types":null,"ppe_contact_phone":null,"ppe_contact_email":null,"ppe_website":null,"is_closed":null}},{"id":"BR2021253TN7MT7","type":"Feature","geometry":{"type":"Point","coordinates":[-49.3797346,-26.9513338]},"properties":{"name":"Confeccoes Jodifer LTDA","address":"7 de abril, 439, Centro, Ascurra","country_code":"BR","os_id":"BR2021253TN7MT7","country_name":"Brazil","has_approved_claim":false,"ppe_product_types":null,"ppe_contact_phone":null,"ppe_contact_email":null,"ppe_website":null,"is_closed":null}},{"id":"BR2021253S8PRZH","type":"Feature","geometry":{"type":"Point","coordinates":[-49.1291729,-26.9272401]},"properties":{"name":"CONFECCOES KREVER LTDA","address":"RUA JOHANN BACHMANN, 400, VELHA CENTRAL, Blumenau","country_code":"BR","os_id":"BR2021253S8PRZH","country_name":"Brazil","has_approved_claim":false,"ppe_product_types":null,"ppe_contact_phone":null,"ppe_contact_email":null,"ppe_website":null,"is_closed":null}},{"id":"BR2019086BNHPZM","type":"Feature","geometry":{"type":"Point","coordinates":[-49.6338216,-27.0580264]},"properties":{"name":"Confeccoes L D M L Ltda - Epp","address":"R. Curt Hering, 3.440, 89150000, Presidente Getulio, Brazil","country_code":"BR","os_id":"BR2019086BNHPZM","country_name":"Brazil","has_approved_claim":false,"ppe_product_types":null,"ppe_contact_phone":null,"ppe_contact_email":null,"ppe_website":null,"is_closed":null}},{"id":"BR202115357T9WD","type":"Feature","geometry":{"type":"Point","coordinates":[-49.518067,-26.2499033]},"properties":{"name":"CONFECÇÕES LERIAL LTDA","address":"RUA RIO NEGRINHO, 489","country_code":"BR","os_id":"BR202115357T9WD","country_name":"Brazil","has_approved_claim":false,"ppe_product_types":null,"ppe_contact_phone":null,"ppe_contact_email":null,"ppe_website":null,"is_closed":null}},{"id":"BR2021253SP5QP4","type":"Feature","geometry":{"type":"Point","coordinates":[-49.4342471,-28.6434129]},"properties":{"name":"CONFECCOES METROPOL LTDA","address":"Juarez Martinelli, 65, Metropol, Criciuma","country_code":"BR","os_id":"BR2021253SP5QP4","country_name":"Brazil","has_approved_claim":false,"ppe_product_types":null,"ppe_contact_phone":null,"ppe_contact_email":null,"ppe_website":null,"is_closed":null}},{"id":"BR20201908GB73F","type":"Feature","geometry":{"type":"Point","coordinates":[-46.6973162,-23.6077583]},"properties":{"name":"Confecções Perfil de Batatais Ltda","address":"R. Nações Unidas, 300Batatais14315752","country_code":"BR","os_id":"BR20201908GB73F","country_name":"Brazil","has_approved_claim":false,"ppe_product_types":null,"ppe_contact_phone":null,"ppe_contact_email":null,"ppe_website":null,"is_closed":null}},{"id":"BR2019083Q0E19T","type":"Feature","geometry":{"type":"Point","coordinates":[-49.3135014,-26.8333366]},"properties":{"name":"Confeccoes Rmik Ltda. Me","address":"Rua Carlos Janke 128  (Sc 110 Km 133) B. Rodeio 12 Rodeio – SC Santa Catarina","country_code":"BR","os_id":"BR2019083Q0E19T","country_name":"Brazil","has_approved_claim":false,"ppe_product_types":null,"ppe_contact_phone":null,"ppe_contact_email":null,"ppe_website":null,"is_closed":null}},{"id":"BR2021253VAV4W3","type":"Feature","geometry":{"type":"Point","coordinates":[-49.9326855,-27.2582015]},"properties":{"name":"CONFECCOES SEMENTE DO VALE LTDA","address":"23 DE JULHO, 1085, Centro, Pouso Redondo","country_code":"BR","os_id":"BR2021253VAV4W3","country_name":"Brazil","has_approved_claim":false,"ppe_product_types":null,"ppe_contact_phone":null,"ppe_contact_email":null,"ppe_website":null,"is_closed":null}},{"id":"BR2021253TQHJMB","type":"Feature","geometry":{"type":"Point","coordinates":[-49.45473029999999,-28.7151931]},"properties":{"name":"Confecções Vanelise Ltda.","address":"ROD JOSEPHINA LODETTI VASSOLER, 3788, Vila Franca, Forquilhinha","country_code":"BR","os_id":"BR2021253TQHJMB","country_name":"Brazil","has_approved_claim":false,"ppe_product_types":null,"ppe_contact_phone":null,"ppe_contact_email":null,"ppe_website":null,"is_closed":null}},{"id":"MA202010633HG33","type":"Feature","geometry":{"type":"Point","coordinates":[-5.7787072,35.7399198]},"properties":{"name":"CONFECTION POCARGIL","address":"ZONE INDUSTRIELLE ROUTE DE TETOUAN ALLEE1 N 28 - TANGER","country_code":"MA","os_id":"MA202010633HG33","country_name":"Morocco","has_approved_claim":false,"ppe_product_types":null,"ppe_contact_phone":null,"ppe_contact_email":null,"ppe_website":null,"is_closed":null}},{"id":"MA20211205EZH4X","type":"Feature","geometry":{"type":"Point","coordinates":[-5.8339543,35.7594651]},"properties":{"name":"CONFECTION SALSABILE SARL","address":"Z.I. Al Majd, Lot. 826, 857\n9000 Tanger Tanger","country_code":"MA","os_id":"MA20211205EZH4X","country_name":"Morocco","has_approved_claim":false,"ppe_product_types":null,"ppe_contact_phone":null,"ppe_contact_email":null,"ppe_website":null,"is_closed":null}},{"id":"BD201910892D70T","type":"Feature","geometry":{"type":"Point","coordinates":[90.3551707,23.8004305]},"properties":{"name":"Confidence Industries Ltd","address":"Section-2, Block-A, Plot-104, Mirpur Dhaka Dhaka zila Bangladesh","country_code":"BD","os_id":"BD201910892D70T","country_name":"Bangladesh","has_approved_claim":false,"ppe_product_types":null,"ppe_contact_phone":null,"ppe_contact_email":null,"ppe_website":null,"is_closed":null}},{"id":"BR201908602QJ3W","type":"Feature","geometry":{"type":"Point","coordinates":[-47.2498484,-23.1219091]},"properties":{"name":"Conquist Modas Confecção De Roupas Ltda Me","address":"R. Anhangabau,148 Indaiatuba  13349-772","country_code":"BR","os_id":"BR201908602QJ3W","country_name":"Brazil","has_approved_claim":false,"ppe_product_types":null,"ppe_contact_phone":null,"ppe_contact_email":null,"ppe_website":null,"is_closed":null}},{"id":"CN2020085K0FZEH","type":"Feature","geometry":{"type":"Point","coordinates":[116.9508195,31.0521813]},"properties":{"name":"COOLTEX (ANHUI) MANUFACTURING LTD","address":"8 JING YI SOUTH ROAD, ECONOMIC DEVELOPMENT ZONE TONGCHENG ANHUI CHINA 231400","country_code":"CN","os_id":"CN2020085K0FZEH","country_name":"China","has_approved_claim":false,"ppe_product_types":null,"ppe_contact_phone":null,"ppe_contact_email":null,"ppe_website":null,"is_closed":null}},{"id":"BR20212608SN0VJ","type":"Feature","geometry":{"type":"Point","coordinates":[-49.7297144,-20.2967077]},"properties":{"name":"COOPERATIVA DE TRABALHO DE CONFECCOES DE AMERICO DE CAMPOS\n- COOCAM","address":"JOAO MANOEL FERNANDES,\n581 - Americo de Campos, SP","country_code":"BR","os_id":"BR20212608SN0VJ","country_name":"Brazil","has_approved_claim":false,"ppe_product_types":null,"ppe_contact_phone":null,"ppe_contact_email":null,"ppe_website":null,"is_closed":null}},{"id":"BR20190856S16WF","type":"Feature","geometry":{"type":"Point","coordinates":[-38.4720709,-5.039843]},"properties":{"name":"COOPERSHOES - COOPERATIVA DE TRABALHO E INDUSTRIA DE CALÇADOS JOANETENSE LTDA (MORADA NOVA)","address":"AV DO CONTORNO, S/Nº - CE265 MORADA NOVA CEARA 62940000","country_code":"BR","os_id":"BR20190856S16WF","country_name":"Brazil","has_approved_claim":false,"ppe_product_types":null,"ppe_contact_phone":null,"ppe_contact_email":null,"ppe_website":null,"is_closed":null}},{"id":"BR2021253RE0Z7F","type":"Feature","geometry":{"type":"Point","coordinates":[-49.0744938,-26.8404456]},"properties":{"name":"CORTE & ARTE FACCAO E COMERCIO DE MALHAS LTDA","address":"RUA PROFESSOR HERMANN LANGE, 548, FIDELIS, Blumenau","country_code":"BR","os_id":"BR2021253RE0Z7F","country_name":"Brazil","has_approved_claim":false,"ppe_product_types":null,"ppe_contact_phone":null,"ppe_contact_email":null,"ppe_website":null,"is_closed":null}},{"id":"BR20212533THPKT","type":"Feature","geometry":{"type":"Point","coordinates":[-49.2120046,-28.1856731]},"properties":{"name":"Corte Costura e Acabamento Talyfina Eireli","address":"Angelo Alberton Luiz, 307, Centro, Grao Para","country_code":"BR","os_id":"BR20212533THPKT","country_name":"Brazil","has_approved_claim":false,"ppe_product_types":null,"ppe_contact_phone":null,"ppe_contact_email":null,"ppe_website":null,"is_closed":null}},{"id":"CN20211613SFYQY","type":"Feature","geometry":{"type":"Point","coordinates":[113.530998,22.498612]},"properties":{"name":"Cosmo Textile Co., Ltd. (Zhongshan)","address":"Block 17-21, Longzhuyuan,Nanlang Industrial District, Nanlang Town, Zhongshan, GuangDong","country_code":"CN","os_id":"CN20211613SFYQY","country_name":"China","has_approved_claim":false,"ppe_product_types":null,"ppe_contact_phone":null,"ppe_contact_email":null,"ppe_website":null,"is_closed":null}},{"id":"VN2022064JGDRNG","type":"Feature","geometry":{"type":"Point","coordinates":[106.4461544,10.7851005]},"properties":{"name":"COSMO VIET NAM CO., LTD.","address":"FACTORY 01, LOT 19, ROAD 15B. TAN DUC IP, HUU THANH COMMUNE, DUC HOA, Long An Province, 085000","country_code":"VN","os_id":"VN2022064JGDRNG","country_name":"Vietnam","has_approved_claim":false,"ppe_product_types":null,"ppe_contact_phone":null,"ppe_contact_email":null,"ppe_website":null,"is_closed":null}},{"id":"BR20212604X7FWM","type":"Feature","geometry":{"type":"Point","coordinates":[-48.96534219999999,-27.1367375]},"properties":{"name":"COSTURA FACIL FACCAO TEXTIL LTDA","address":"R BEIRA RIO, 2203 - Brusque, SC","country_code":"BR","os_id":"BR20212604X7FWM","country_name":"Brazil","has_approved_claim":false,"ppe_product_types":null,"ppe_contact_phone":null,"ppe_contact_email":null,"ppe_website":null,"is_closed":null}},{"id":"PT20190837NJV48","type":"Feature","geometry":{"type":"Point","coordinates":[-8.6190525,41.5320504]},"properties":{"name":"COTTONANSWER","address":"Rua Dos Combatentes Do Ultramar , 50, Apt 150 4754-909  Barcelos Cavado","country_code":"PT","os_id":"PT20190837NJV48","country_name":"Portugal","has_approved_claim":false,"ppe_product_types":null,"ppe_contact_phone":null,"ppe_contact_email":null,"ppe_website":null,"is_closed":null}},{"id":"IN2021176B66SZS","type":"Feature","geometry":{"type":"Point","coordinates":[77.32611,11.207883]},"properties":{"name":"Cotton Blossom","address":"Shed No. 15, Netaji Apparel Park, Ettiveerampalayam, Perumanallur (Post), Tirupur, Tamil Nadu","country_code":"IN","os_id":"IN2021176B66SZS","country_name":"India","has_approved_claim":false,"ppe_product_types":null,"ppe_contact_phone":null,"ppe_contact_email":null,"ppe_website":null,"is_closed":null}},{"id":"BD20212817QAPAY","type":"Feature","geometry":{"type":"Point","coordinates":[90.4183428,23.8627528]},"properties":{"name":"Cotton Clothing (BD) Ltd.","address":"Kazi Tower, 27 Road, Gazipura, Tongi, Gazipur 1712, Dhaka - Bangladesh","country_code":"BD","os_id":"BD20212817QAPAY","country_name":"Bangladesh","has_approved_claim":false,"ppe_product_types":null,"ppe_contact_phone":null,"ppe_contact_email":null,"ppe_website":null,"is_closed":null}},{"id":"RO2019158AA421P","type":"Feature","geometry":{"type":"Point","coordinates":[21.2559237,45.7399147]},"properties":{"name":"Cottontex Srl","address":"Calea Buziasului 18 300571 Timisoara Romania","country_code":"RO","os_id":"RO2019158AA421P","country_name":"Romania","has_approved_claim":false,"ppe_product_types":null,"ppe_contact_phone":null,"ppe_contact_email":null,"ppe_website":null,"is_closed":null}},{"id":"MA2021183Y6KJW4","type":"Feature","geometry":{"type":"Point","coordinates":[-8.5116903,31.3626983]},"properties":{"name":"CRC PRODUCTION","address":"Lot 100, Zi Mejjat","country_code":"MA","os_id":"MA2021183Y6KJW4","country_name":"Morocco","has_approved_claim":false,"ppe_product_types":null,"ppe_contact_phone":null,"ppe_contact_email":null,"ppe_website":null,"is_closed":null}},{"id":"MA2019181Q7K0D2","type":"Feature","geometry":{"type":"Point","coordinates":[-6.7895574,34.0631528]},"properties":{"name":"Creation Clothing","address":"No 55 Zone Industrielle Hay Errahma  Sale","country_code":"MA","os_id":"MA2019181Q7K0D2","country_name":"Morocco","has_approved_claim":false,"ppe_product_types":null,"ppe_contact_phone":null,"ppe_contact_email":null,"ppe_website":null,"is_closed":null}},{"id":"KH202005358MKBY","type":"Feature","geometry":{"type":"Point","coordinates":[104.6267193,11.2959972]},"properties":{"name":"CREDSTAR WASHING & PROCESSING CO LTD","address":"#7,Wansheng Industrial Park ,Nation Road 3 Kong Pisei Kampong Spueu","country_code":"KH","os_id":"KH202005358MKBY","country_name":"Cambodia","has_approved_claim":false,"ppe_product_types":null,"ppe_contact_phone":null,"ppe_contact_email":null,"ppe_website":null,"is_closed":null}},{"id":"PK2019086N5SVTX","type":"Feature","geometry":{"type":"Point","coordinates":[73.4779532,31.8728237]},"properties":{"name":"Crescent Bahuman","address":"Lahore Sargodha Road, Bahuman, District Hafizabad","country_code":"PK","os_id":"PK2019086N5SVTX","country_name":"Pakistan","has_approved_claim":false,"ppe_product_types":null,"ppe_contact_phone":null,"ppe_contact_email":null,"ppe_website":null,"is_closed":null}},{"id":"BR2021230J23ABA","type":"Feature","geometry":{"type":"Point","coordinates":[-44.98327430000001,-19.874703]},"properties":{"name":"Criacoes Roger Ltda","address":"Rua Adalberto Ferreira Do Amaral, 100,Nova Serrana,35520052","country_code":"BR","os_id":"BR2021230J23ABA","country_name":"Brazil","has_approved_claim":false,"ppe_product_types":null,"ppe_contact_phone":null,"ppe_contact_email":null,"ppe_website":null,"is_closed":null}},{"id":"BR20212534WXTE8","type":"Feature","geometry":{"type":"Point","coordinates":[-51.95195080000001,-29.3841014]},"properties":{"name":"CRISBEL CALÇADOS EIRELI - EPP","address":"RUA MACHADO DE ASSIS, 171, BELA VISTA, Arroio do Meio","country_code":"BR","os_id":"BR20212534WXTE8","country_name":"Brazil","has_approved_claim":false,"ppe_product_types":null,"ppe_contact_phone":null,"ppe_contact_email":null,"ppe_website":null,"is_closed":null}}]