[{"id":"CN2020084JX91XQ","type":"Feature","geometry":{"type":"Point","coordinates":[120.4151017,31.7717999]},"properties":{"name":"JIANGYIN JINGDI GMTS FTY","address":"18 HUANXI ROAD, WENLIN BEIWAN INDUSTRY ZONE, ZHUTANG TOWN 214415, JIANGYIN","country_code":"CN","os_id":"CN2020084JX91XQ","country_name":"China","has_approved_claim":false,"ppe_product_types":null,"ppe_contact_phone":null,"ppe_contact_email":null,"ppe_website":null,"is_closed":null}},{"id":"CN2019100WSNXJQ","type":"Feature","geometry":{"type":"Point","coordinates":[120.4937535,31.7505301]},"properties":{"name":"JIANGYIN KANGYUAN PRINTING CO., LTD.","address":"CHANGDONG VILLAGE, CHANGJING TOWN, JIANGYIN, Jiangsu","country_code":"CN","os_id":"CN2019100WSNXJQ","country_name":"China","has_approved_claim":false,"ppe_product_types":null,"ppe_contact_phone":null,"ppe_contact_email":null,"ppe_website":null,"is_closed":null}},{"id":"CN2020134XFQ1RS","type":"Feature","geometry":{"type":"Point","coordinates":[120.0249539,31.7044409]},"properties":{"name":"Jiangyin Tianyun Knitting & Textile Garment Co., Ltd.","address":"No. 8 HuaChang Road WenLin Zhutang Town, Jiangyin, Jiangsu, China","country_code":"CN","os_id":"CN2020134XFQ1RS","country_name":"China","has_approved_claim":false,"ppe_product_types":null,"ppe_contact_phone":null,"ppe_contact_email":null,"ppe_website":null,"is_closed":null}},{"id":"CN2019083PMG136","type":"Feature","geometry":{"type":"Point","coordinates":[120.40851,31.713758]},"properties":{"name":"Jiangyin Yarui Garment Co., Ltd.","address":"No. 21 Xiwen Road Wen Lin Zhutang Town Wenlin Zhutang Town Jiangyin Jiangsu","country_code":"CN","os_id":"CN2019083PMG136","country_name":"China","has_approved_claim":false,"ppe_product_types":null,"ppe_contact_phone":null,"ppe_contact_email":null,"ppe_website":null,"is_closed":null}},{"id":"CN20201482FBSSG","type":"Feature","geometry":{"type":"Point","coordinates":[120.41341,31.769712]},"properties":{"name":"Jiangyin Yashili Garment Factory","address":"No 31 Huanxi Rd Industrial Concentrated Area B Zhutang Town Jiangyin City Jiangsu Province","country_code":"CN","os_id":"CN20201482FBSSG","country_name":"China","has_approved_claim":false,"ppe_product_types":null,"ppe_contact_phone":null,"ppe_contact_email":null,"ppe_website":null,"is_closed":null}},{"id":"CN2019098SWSJS7","type":"Feature","geometry":{"type":"Point","coordinates":[120.965158,30.923707]},"properties":{"name":"Jiashan Tian Ma Leather Gloves Co. Ltd","address":"No.658 Jinxiu Avenue, Yaozhuang Town, Jiashan County, Jiaxing, Zhejiang, 314117","country_code":"CN","os_id":"CN2019098SWSJS7","country_name":"China","has_approved_claim":false,"ppe_product_types":null,"ppe_contact_phone":null,"ppe_contact_email":null,"ppe_website":null,"is_closed":null}},{"id":"CN2020010GPM4J6","type":"Feature","geometry":{"type":"Point","coordinates":[120.9365359,30.8369103]},"properties":{"name":"Jiashen Fly Outdoor Product","address":"No 1555 Yangguang West Road  Luoxing Street  Jiashen  Jiaxing  China","country_code":"CN","os_id":"CN2020010GPM4J6","country_name":"China","has_approved_claim":false,"ppe_product_types":null,"ppe_contact_phone":null,"ppe_contact_email":null,"ppe_website":null,"is_closed":null}},{"id":"MM20203640BGYKQ","type":"Feature","geometry":{"type":"Point","coordinates":[96.09807,16.94595]},"properties":{"name":"Jiashihao Myanmar Company Limited","address":"Plot No.77-A, Kha Yay Street, Ward (42), Shwepyithar Industrial Zone (1), Shwepyithar Township, Yangon Region, Myanmar","country_code":"MM","os_id":"MM20203640BGYKQ","country_name":"Myanmar","has_approved_claim":false,"ppe_product_types":null,"ppe_contact_phone":null,"ppe_contact_email":null,"ppe_website":null,"is_closed":null}},{"id":"CN20203391NP2XF","type":"Feature","geometry":{"type":"Point","coordinates":[120.4521126,30.6164659]},"properties":{"name":"Jiaxing Innovative Manufactory Ltd - Newfine","address":"No 38 Xincun Road, Shimen Town, Tongxiang City, Zhejiang, China","country_code":"CN","os_id":"CN20203391NP2XF","country_name":"China","has_approved_claim":false,"ppe_product_types":null,"ppe_contact_phone":null,"ppe_contact_email":null,"ppe_website":null,"is_closed":null}},{"id":"CN20200846TWYRK","type":"Feature","geometry":{"type":"Point","coordinates":[121.0219568,30.6968178]},"properties":{"name":"JIA XING JIASIDA CLOTHING CO., LTD.","address":"NO.88-1, ZHAOHUANG ROAD, GROUP 1, ZHAOJIAQIAO VILLAGE, DUSHANGANG TOWN, PINGHU CITY 314200, PING HU","country_code":"CN","os_id":"CN20200846TWYRK","country_name":"China","has_approved_claim":false,"ppe_product_types":null,"ppe_contact_phone":null,"ppe_contact_email":null,"ppe_website":null,"is_closed":null}},{"id":"CN2019083E2P5N8","type":"Feature","geometry":{"type":"Point","coordinates":[120.9253377,30.7045635]},"properties":{"name":"Jiaxing Realm Garment Fashionco Ltd","address":"No619 Shuanglong Rd Xinfeng Town Nanhu District Jiaxing Zhejiang","country_code":"CN","os_id":"CN2019083E2P5N8","country_name":"China","has_approved_claim":false,"ppe_product_types":null,"ppe_contact_phone":null,"ppe_contact_email":null,"ppe_website":null,"is_closed":null}},{"id":"CN2019241BYJ6JQ","type":"Feature","geometry":{"type":"Point","coordinates":[120.9255221,30.705638]},"properties":{"name":"Jiaxing Tongya Travel Goods Co Ltd","address":"Building1 No3399 Shuanglong Road Jiaxing Industrial Park Daqiao Town Jiaxing City Zhejiang Province","country_code":"CN","os_id":"CN2019241BYJ6JQ","country_name":"China","has_approved_claim":false,"ppe_product_types":null,"ppe_contact_phone":null,"ppe_contact_email":null,"ppe_website":null,"is_closed":null}},{"id":"CN2020084MSN6CN","type":"Feature","geometry":{"type":"Point","coordinates":[120.9575429,30.9097222]},"properties":{"name":"JIAXING WANYUAN FASHION CO.,LTD","address":"NO.268 QIANJIN ROAD, YAOZHUANG INDUSTRIAL ZONE, JIASHAN COUNTY 314117, JIAXING","country_code":"CN","os_id":"CN2020084MSN6CN","country_name":"China","has_approved_claim":true,"ppe_product_types":null,"ppe_contact_phone":null,"ppe_contact_email":null,"ppe_website":null,"is_closed":null}},{"id":"CN2019085D060TQ","type":"Feature","geometry":{"type":"Point","coordinates":[116.4120915,23.5661415]},"properties":{"name":"JIEYANG TIN YUN FOOTWEAR","address":"North Road No.3, Economic Development District, Jiedong, Jieyang City, Guangdong, 515500","country_code":"CN","os_id":"CN2019085D060TQ","country_name":"China","has_approved_claim":false,"ppe_product_types":null,"ppe_contact_phone":null,"ppe_contact_email":null,"ppe_website":null,"is_closed":null}},{"id":"BD20202813BKDCF","type":"Feature","geometry":{"type":"Point","coordinates":[91.08495920000001,23.5304]},"properties":{"name":"Jihan Footwear (Pvt.) Ltd.","address":"Rampur, Burichong, Cumilla, Chittagong","country_code":"BD","os_id":"BD20202813BKDCF","country_name":"Bangladesh","has_approved_claim":false,"ppe_product_types":null,"ppe_contact_phone":null,"ppe_contact_email":null,"ppe_website":null,"is_closed":null}},{"id":"CN2022173T3QHZ6","type":"Feature","geometry":{"type":"Point","coordinates":[119.900234,29.236245]},"properties":{"name":"Jinhua Texhong Household Co., Ltd.","address":"Donggang North Street, No. 188, Building No. 5, Fucun Town, Jindong District, Jinhua, Zhejiang","country_code":"CN","os_id":"CN2022173T3QHZ6","country_name":"China","has_approved_claim":false,"ppe_product_types":null,"ppe_contact_phone":null,"ppe_contact_email":null,"ppe_website":null,"is_closed":null}},{"id":"CN2020009NN49QC","type":"Feature","geometry":{"type":"Point","coordinates":[119.9272312,29.1746604]},"properties":{"name":"Jinhua Zhihou Garment Co","address":"Ditian Industrial Area Xiaoshun Town Jinhua City Zhejiang China","country_code":"CN","os_id":"CN2020009NN49QC","country_name":"China","has_approved_claim":false,"ppe_product_types":null,"ppe_contact_phone":null,"ppe_contact_email":null,"ppe_website":null,"is_closed":null}},{"id":"CN2021026GD54DH","type":"Feature","geometry":{"type":"Point","coordinates":[116.5474767,35.7280916]},"properties":{"name":"JINING RUI NING GARMENT CO. LTD","address":"NO.6,MINGSHENG ROAD,WENSHANG COUNTY,JINING CITY,SHANDONG CHINA, 272502, JINING,","country_code":"CN","os_id":"CN2021026GD54DH","country_name":"China","has_approved_claim":false,"ppe_product_types":null,"ppe_contact_phone":null,"ppe_contact_email":null,"ppe_website":null,"is_closed":null}},{"id":"CN2021183JJGJ4C","type":"Feature","geometry":{"type":"Point","coordinates":[118.464241,24.782176]},"properties":{"name":"Jinjiang Fuyu Shoes CO","address":"No.208, Li Cuo, Dong Cun Village, East Village Industrial Zone,  Neikeng Town,  Jinjiang, Fujian, China China","country_code":"CN","os_id":"CN2021183JJGJ4C","country_name":"China","has_approved_claim":false,"ppe_product_types":null,"ppe_contact_phone":null,"ppe_contact_email":null,"ppe_website":null,"is_closed":null}},{"id":"CN2020120CM2JR4","type":"Feature","geometry":{"type":"Point","coordinates":[118.5663735,24.6041498]},"properties":{"name":"Jinjiang Shengyi Fashion Weaving Co Ltd","address":"118 Yinghao Road, Yinglin Industrial Area, Yinglin Town, Jinjiang City, Fujian Province","country_code":"CN","os_id":"CN2020120CM2JR4","country_name":"China","has_approved_claim":false,"ppe_product_types":null,"ppe_contact_phone":null,"ppe_contact_email":null,"ppe_website":null,"is_closed":null}},{"id":"CN20210062Q7AT0","type":"Feature","geometry":{"type":"Point","coordinates":[118.552365,24.781681]},"properties":{"name":"JINJIANG WANCHENG CYCLING GARMENT CO LTD","address":"NO 8 EAST DAGONGSHAN RD, JINJIANG, FUJIAN","country_code":"CN","os_id":"CN20210062Q7AT0","country_name":"China","has_approved_claim":false,"ppe_product_types":null,"ppe_contact_phone":null,"ppe_contact_email":null,"ppe_website":null,"is_closed":null}},{"id":"CN2020009A4S0HP","type":"Feature","geometry":{"type":"Point","coordinates":[118.6567489,24.6076014]},"properties":{"name":"Jinjiang Yellow River Garments Co Ltd","address":"Jinquan Road Kengbian Village Shenhu Town Jinjiang City Fujian Province China","country_code":"CN","os_id":"CN2020009A4S0HP","country_name":"China","has_approved_claim":false,"ppe_product_types":null,"ppe_contact_phone":null,"ppe_contact_email":null,"ppe_website":null,"is_closed":null}},{"id":"CN2019172WC1M26","type":"Feature","geometry":{"type":"Point","coordinates":[118.681078,24.625915]},"properties":{"name":"Jinjiang Yellow River Garments Co..Ltd.","address":"Donghaian Industrial Development Zone, Shenhu Town Jinjiang 362246 Fujian","country_code":"CN","os_id":"CN2019172WC1M26","country_name":"China","has_approved_claim":false,"ppe_product_types":null,"ppe_contact_phone":null,"ppe_contact_email":null,"ppe_website":null,"is_closed":null}},{"id":"CN2019105PYY9HF","type":"Feature","geometry":{"type":"Point","coordinates":[118.552365,24.781681]},"properties":{"name":"Jinjiang Yoya Apparel Co., Ltd","address":"Shatang Community, Xintang Street, , JinJiang City, Fujian","country_code":"CN","os_id":"CN2019105PYY9HF","country_name":"China","has_approved_claim":false,"ppe_product_types":null,"ppe_contact_phone":null,"ppe_contact_email":null,"ppe_website":null,"is_closed":null}},{"id":"MM2022145GQ5FKR","type":"Feature","geometry":{"type":"Point","coordinates":[96.0680792679243,16.917101575702]},"properties":{"name":"Jinli Knitting & Spinning (Myanmar) Co., Ltd.","address":"Plot No.263,264,265, Myay Taing Block No.25, Corner of Min Gyi Maha Min Gaung Street and Wun Saung Mhu Street, Shwe Lin Ban Industrial Zone, Hlaingtharya Township, Yangon Region, Myanmar","country_code":"MM","os_id":"MM2022145GQ5FKR","country_name":"Myanmar","has_approved_claim":false,"ppe_product_types":null,"ppe_contact_phone":null,"ppe_contact_email":null,"ppe_website":null,"is_closed":null}},{"id":"IN2019083YNN2MC","type":"Feature","geometry":{"type":"Point","coordinates":[77.3109035,28.4816264]},"properties":{"name":"Jiva Designs Pvt Ltd","address":"68/1 Dlf Industrial Estate Phase-I  Faridabad - 121003 Haryana","country_code":"IN","os_id":"IN2019083YNN2MC","country_name":"India","has_approved_claim":false,"ppe_product_types":null,"ppe_contact_phone":null,"ppe_contact_email":null,"ppe_website":null,"is_closed":null}},{"id":"BR2021127AERT5J","type":"Feature","geometry":{"type":"Point","coordinates":[-48.9488756,-26.9123816]},"properties":{"name":"JL ESTAMPARIA LTDA","address":"RUA ADRIANA MULLER, 429, MARGEM ESQUERDA, GASPAR","country_code":"BR","os_id":"BR2021127AERT5J","country_name":"Brazil","has_approved_claim":false,"ppe_product_types":null,"ppe_contact_phone":null,"ppe_contact_email":null,"ppe_website":null,"is_closed":null}},{"id":"GT2019085ZZTCJA","type":"Feature","geometry":{"type":"Point","coordinates":[-90.466403,14.564447]},"properties":{"name":"JNB TRADING S.A.","address":"KM13.5 CARRETERRA A EL SALVADOR PUERTA PARADA  314000","country_code":"GT","os_id":"GT2019085ZZTCJA","country_name":"Guatemala","has_approved_claim":false,"ppe_product_types":null,"ppe_contact_phone":null,"ppe_contact_email":null,"ppe_website":null,"is_closed":null}},{"id":"BR2020191CXY18K","type":"Feature","geometry":{"type":"Point","coordinates":[-49.1368226,-26.895704]},"properties":{"name":"João Reinert Têxtil Ltda","address":"Rua Henrique Weise,452, Blumenau","country_code":"BR","os_id":"BR2020191CXY18K","country_name":"Brazil","has_approved_claim":false,"ppe_product_types":null,"ppe_contact_phone":null,"ppe_contact_email":null,"ppe_website":null,"is_closed":null}},{"id":"TW2020016VWB4WR","type":"Feature","geometry":{"type":"Point","coordinates":[121.438034,24.968371]},"properties":{"name":"JOCK VAN GARMENT INDUSTRIES CO LTD","address":"NO 9-1, LANE 184, SEC 3 JHONG-YANG RD, TUCHENG CITY , TAIPEI, T´ai-pei, 23680","country_code":"TW","os_id":"TW2020016VWB4WR","country_name":"Taiwan","has_approved_claim":false,"ppe_product_types":null,"ppe_contact_phone":null,"ppe_contact_email":null,"ppe_website":null,"is_closed":null}},{"id":"BR2021253Y73V9F","type":"Feature","geometry":{"type":"Point","coordinates":[-49.0678904,-27.0129485]},"properties":{"name":"JOICE KRATZ FACCAO","address":"RUA JORDAO, 2167, PROGRESSO, Blumenau","country_code":"BR","os_id":"BR2021253Y73V9F","country_name":"Brazil","has_approved_claim":false,"ppe_product_types":null,"ppe_contact_phone":null,"ppe_contact_email":null,"ppe_website":null,"is_closed":null}},{"id":"KH2022292QQ1RP3","type":"Feature","geometry":{"type":"Point","coordinates":[104.7871004,11.5392693]},"properties":{"name":"Joint Force Sporting Good (Cambodia) Co., Ltd","address":"Preypring Tbuong Village, Sangkat Choamchao, Khan Porsenchey, Phnom Penh, Phnom Penh 12405","country_code":"KH","os_id":"KH2022292QQ1RP3","country_name":"Cambodia","has_approved_claim":false,"ppe_product_types":null,"ppe_contact_phone":null,"ppe_contact_email":null,"ppe_website":null,"is_closed":null}},{"id":"BR2021127PJF30X","type":"Feature","geometry":{"type":"Point","coordinates":[-49.7256311,-26.9849159]},"properties":{"name":"JONAS CHIODINI","address":"R KARL KULHEMANN, 114, CENTRO, DONA EMMA","country_code":"BR","os_id":"BR2021127PJF30X","country_name":"Brazil","has_approved_claim":false,"ppe_product_types":null,"ppe_contact_phone":null,"ppe_contact_email":null,"ppe_website":null,"is_closed":null}},{"id":"BR2021253S44G1N","type":"Feature","geometry":{"type":"Point","coordinates":[-49.3522758,-26.9082964]},"properties":{"name":"J ONILDE CONFECCOES LTDA","address":"R MAXIMILIANO VENTURI, 3251, GAVEA, Rodeio","country_code":"BR","os_id":"BR2021253S44G1N","country_name":"Brazil","has_approved_claim":false,"ppe_product_types":null,"ppe_contact_phone":null,"ppe_contact_email":null,"ppe_website":null,"is_closed":null}},{"id":"BR2021253QG3VDN","type":"Feature","geometry":{"type":"Point","coordinates":[-49.0941919,-26.7618451]},"properties":{"name":"JOSE D.C DE OLIVEIRA CONFECCAO","address":"RUA PAULO ZINGEL FILHO, 137, ITOUPAVA CENTRAL, Blumenau","country_code":"BR","os_id":"BR2021253QG3VDN","country_name":"Brazil","has_approved_claim":false,"ppe_product_types":null,"ppe_contact_phone":null,"ppe_contact_email":null,"ppe_website":null,"is_closed":null}},{"id":"BR2019086BFMF7J","type":"Feature","geometry":{"type":"Point","coordinates":[-47.5212131,-23.0124114]},"properties":{"name":"Jotaro Confeccoes Ltda","address":"R. Guerino Padovani, 65, 13360000, Capivari, Brazil","country_code":"BR","os_id":"BR2019086BFMF7J","country_name":"Brazil","has_approved_claim":false,"ppe_product_types":null,"ppe_contact_phone":null,"ppe_contact_email":null,"ppe_website":null,"is_closed":null}},{"id":"BR2021055KZT55S","type":"Feature","geometry":{"type":"Point","coordinates":[-52.86897519999999,-23.7309155]},"properties":{"name":"J.P. De Faria Confecções Eireli","address":"Rua Quintino Bocaiva - 68, 87430000, Tapejara","country_code":"BR","os_id":"BR2021055KZT55S","country_name":"Brazil","has_approved_claim":false,"ppe_product_types":null,"ppe_contact_phone":null,"ppe_contact_email":null,"ppe_website":null,"is_closed":null}},{"id":"BR2019086B7YCKX","type":"Feature","geometry":{"type":"Point","coordinates":[-49.9178103,-23.56962]},"properties":{"name":"Jp Soares Lima - Me","address":"R. Dalton Antonio Tramontin, 320, 86450000, Quatigu , Brazil","country_code":"BR","os_id":"BR2019086B7YCKX","country_name":"Brazil","has_approved_claim":false,"ppe_product_types":null,"ppe_contact_phone":null,"ppe_contact_email":null,"ppe_website":null,"is_closed":null}},{"id":"BR2021253RDRM1N","type":"Feature","geometry":{"type":"Point","coordinates":[-48.9357554,-27.1135697]},"properties":{"name":"JRP ENVASAMENTO E EMPACOTAMENTO SOB CONTRATO LTDA","address":"RUA OTTO KUCHENBECKER, 155, JARDIM MALUCHE, Brusque","country_code":"BR","os_id":"BR2021253RDRM1N","country_name":"Brazil","has_approved_claim":false,"ppe_product_types":null,"ppe_contact_phone":null,"ppe_contact_email":null,"ppe_website":null,"is_closed":null}},{"id":"GB2019083R1W0ZM","type":"Feature","geometry":{"type":"Point","coordinates":[-1.9035899,53.866005]},"properties":{"name":"JTS Cushions Uk","address":"Unit C Gresley Road Keighley BD21 5JG","country_code":"GB","os_id":"GB2019083R1W0ZM","country_name":"United Kingdom","has_approved_claim":false,"ppe_product_types":null,"ppe_contact_phone":null,"ppe_contact_email":null,"ppe_website":null,"is_closed":null}},{"id":"BR2021253EWB5JF","type":"Feature","geometry":{"type":"Point","coordinates":[-49.280467,-26.879349]},"properties":{"name":"JULIANA RAMOS","address":"R AUGUSTO MAAS, 2639, ARAPONGAS, Indaial","country_code":"BR","os_id":"BR2021253EWB5JF","country_name":"Brazil","has_approved_claim":false,"ppe_product_types":null,"ppe_contact_phone":null,"ppe_contact_email":null,"ppe_website":null,"is_closed":null}},{"id":"BR2021253H0E2CG","type":"Feature","geometry":{"type":"Point","coordinates":[-49.52020479999999,-23.3847007]},"properties":{"name":"JULI-CAR CONFECCOES LTDA","address":"CHICA VAZ, 163, CENTRO, Fartura","country_code":"BR","os_id":"BR2021253H0E2CG","country_name":"Brazil","has_approved_claim":false,"ppe_product_types":null,"ppe_contact_phone":null,"ppe_contact_email":null,"ppe_website":null,"is_closed":null}},{"id":"BR2021253PX3JDR","type":"Feature","geometry":{"type":"Point","coordinates":[-42.816274,-14.9160609]},"properties":{"name":"Jullia Confecções Ltda","address":"Veríssimo Cruz, 150, Cigano, Espinosa","country_code":"BR","os_id":"BR2021253PX3JDR","country_name":"Brazil","has_approved_claim":false,"ppe_product_types":null,"ppe_contact_phone":null,"ppe_contact_email":null,"ppe_website":null,"is_closed":null}},{"id":"PT202008492RRZE","type":"Feature","geometry":{"type":"Point","coordinates":[-8.6442547,41.4392022]},"properties":{"name":"Junius","address":"Rua da Telheira, no. 583 Apartado 171, Barcelos, 4755-558","country_code":"PT","os_id":"PT202008492RRZE","country_name":"Portugal","has_approved_claim":false,"ppe_product_types":null,"ppe_contact_phone":null,"ppe_contact_email":null,"ppe_website":null,"is_closed":null}},{"id":"IN2019086WR71DT","type":"Feature","geometry":{"type":"Point","coordinates":[77.3177845,11.1540308]},"properties":{"name":"Jupiter Knitting Company","address":"Jupiter Avenue, 641652, Tirupur, India","country_code":"IN","os_id":"IN2019086WR71DT","country_name":"India","has_approved_claim":false,"ppe_product_types":null,"ppe_contact_phone":null,"ppe_contact_email":null,"ppe_website":null,"is_closed":null}},{"id":"BR2021253GX3Q6G","type":"Feature","geometry":{"type":"Point","coordinates":[-49.228394,-26.881426]},"properties":{"name":"Jurandir de Oliveira - Thaigu Confecções","address":"Quatorze de Agosto, 234, Carijós, Indaial","country_code":"BR","os_id":"BR2021253GX3Q6G","country_name":"Brazil","has_approved_claim":false,"ppe_product_types":null,"ppe_contact_phone":null,"ppe_contact_email":null,"ppe_website":null,"is_closed":null}},{"id":"CN2020076VZYWVH","type":"Feature","geometry":{"type":"Point","coordinates":[119.356614,31.976268]},"properties":{"name":"Jurong Dongfeng Knitting Hat Factory","address":"No. 86 The West of Baitu Town, Jurong City, Jurong, Jiangsu","country_code":"CN","os_id":"CN2020076VZYWVH","country_name":"China","has_approved_claim":false,"ppe_product_types":null,"ppe_contact_phone":null,"ppe_contact_email":null,"ppe_website":null,"is_closed":null}},{"id":"BR2021260MNCY4R","type":"Feature","geometry":{"type":"Point","coordinates":[-38.7372787,-4.3176128]},"properties":{"name":"J VIEIRA NETO","address":"R PADRE SEVERIANO, 103,\nCENTRO - Redencao, CE","country_code":"BR","os_id":"BR2021260MNCY4R","country_name":"Brazil","has_approved_claim":false,"ppe_product_types":null,"ppe_contact_phone":null,"ppe_contact_email":null,"ppe_website":null,"is_closed":null}},{"id":"BR2021253S4SWE3","type":"Feature","geometry":{"type":"Point","coordinates":[-42.9873317,-22.8124857]},"properties":{"name":"JVJR CONFECÇÕES LTDA - ME","address":"Itatiaia, 400, Laranjal, Sao Goncalo","country_code":"BR","os_id":"BR2021253S4SWE3","country_name":"Brazil","has_approved_claim":false,"ppe_product_types":null,"ppe_contact_phone":null,"ppe_contact_email":null,"ppe_website":null,"is_closed":null}},{"id":"BR2019086PF8TAZ","type":"Feature","geometry":{"type":"Point","coordinates":[-54.725265,-20.474066]},"properties":{"name":"Kabriolli Ind. E Com. De Roupas","address":"Jamil Nahas, 350, 79108680, Campo Grande, Brazil","country_code":"BR","os_id":"BR2019086PF8TAZ","country_name":"Brazil","has_approved_claim":false,"ppe_product_types":null,"ppe_contact_phone":null,"ppe_contact_email":null,"ppe_website":null,"is_closed":null}}]