[{"id":"CN2022292SE2FVQ","type":"Feature","geometry":{"type":"Point","coordinates":[113.79731,22.70104]},"properties":{"name":"Coats Shenzhen Ltd","address":"Building 7/9/17 (Phase II Hi-Tech Industrial Park), Coats Industrial Park, Fengtang Dadao, Tangwei Community, Fuyong Street, Baoan District, Shenzhen, Guangdong 518103","country_code":"CN","os_id":"CN2022292SE2FVQ","country_name":"China","has_approved_claim":false,"ppe_product_types":null,"ppe_contact_phone":null,"ppe_contact_email":null,"ppe_website":null,"is_closed":null}},{"id":"CN2019100Z8JAFG","type":"Feature","geometry":{"type":"Point","coordinates":[118.307386,34.360664]},"properties":{"name":"Cobest (Jiangsu) Garment Co., Ltd.","address":"#1Huancheng Road, Xinyi Economic Development Zone, Xinyi, Jiangsu","country_code":"CN","os_id":"CN2019100Z8JAFG","country_name":"China","has_approved_claim":false,"ppe_product_types":null,"ppe_contact_phone":null,"ppe_contact_email":null,"ppe_website":null,"is_closed":null}},{"id":"BR202003424KQ3J","type":"Feature","geometry":{"type":"Point","coordinates":[-48.8804601,-27.0121241]},"properties":{"name":"Combina Cores Confecção E Estamparia Ltda Me","address":"Rodovia Ivo Silveira, 1650,88355201,Brusque","country_code":"BR","os_id":"BR202003424KQ3J","country_name":"Brazil","has_approved_claim":false,"ppe_product_types":null,"ppe_contact_phone":null,"ppe_contact_email":null,"ppe_website":null,"is_closed":null}},{"id":"BR2020053T3CKEA","type":"Feature","geometry":{"type":"Point","coordinates":[-42.694026,-21.393386]},"properties":{"name":"Companhia Industrial Cataguases","address":"praça jose inácio peixoto, 28 - vila teresa - cataguases-mg Cataguazes Minas Gerais 36772010","country_code":"BR","os_id":"BR2020053T3CKEA","country_name":"Brazil","has_approved_claim":false,"ppe_product_types":null,"ppe_contact_phone":null,"ppe_contact_email":null,"ppe_website":null,"is_closed":null}},{"id":"CN2021014SXVW8G","type":"Feature","geometry":{"type":"Point","coordinates":[120.7556719,30.798969]},"properties":{"name":"Cone Denim (Jiaxing) Limited","address":"NO.60, Gangshan Road,314001,Jiaxing","country_code":"CN","os_id":"CN2021014SXVW8G","country_name":"China","has_approved_claim":true,"ppe_product_types":null,"ppe_contact_phone":null,"ppe_contact_email":null,"ppe_website":null,"is_closed":null}},{"id":"PE2019085RKTYM5","type":"Feature","geometry":{"type":"Point","coordinates":[-76.9506413,-12.0465507]},"properties":{"name":"Confecciones Textimax S.A.","address":"Av. Huarochiri No.151 – Santa Anita / Lima - Peru  Lima","country_code":"PE","os_id":"PE2019085RKTYM5","country_name":"Peru","has_approved_claim":false,"ppe_product_types":null,"ppe_contact_phone":null,"ppe_contact_email":null,"ppe_website":null,"is_closed":null}},{"id":"BR2019086ARW30F","type":"Feature","geometry":{"type":"Point","coordinates":[-49.2704977,-26.8101668]},"properties":{"name":"CONFECÇÕES EVANILDA LTDA","address":"RUA  BIRMÂNIA, 101, BAIRRO DAS NAÇÕES, TIMBÓ","country_code":"BR","os_id":"BR2019086ARW30F","country_name":"Brazil","has_approved_claim":false,"ppe_product_types":null,"ppe_contact_phone":null,"ppe_contact_email":null,"ppe_website":null,"is_closed":null}},{"id":"BR2020191SBDWQ7","type":"Feature","geometry":{"type":"Point","coordinates":[-43.015125,-21.526754]},"properties":{"name":"CONVES ROUPAS EIRELI","address":"Rua Eurico Souza Campos, 147\nGalpão B, Sao Joao Nepomuceno","country_code":"BR","os_id":"BR2020191SBDWQ7","country_name":"Brazil","has_approved_claim":false,"ppe_product_types":null,"ppe_contact_phone":null,"ppe_contact_email":null,"ppe_website":null,"is_closed":null}},{"id":"BR2020034AF3BEM","type":"Feature","geometry":{"type":"Point","coordinates":[-51.256711,-23.262174]},"properties":{"name":"Costa Rica Malhas E Conf Ltda","address":"Rua Arcenio Gomes Da Silva 104 ,86183758,Cambe","country_code":"BR","os_id":"BR2020034AF3BEM","country_name":"Brazil","has_approved_claim":false,"ppe_product_types":null,"ppe_contact_phone":null,"ppe_contact_email":null,"ppe_website":null,"is_closed":null}},{"id":"BD2019083ZRNEPD","type":"Feature","geometry":{"type":"Point","coordinates":[90.4202734,24.7471492]},"properties":{"name":"Cotton Dyeing & Finishing Mills Ltd.","address":"Vill: Amtoli, Union: 10 No. Habirbari, P.O-Seedstore Bazar, P.S.-Valuka.,Mymensingh-2240, Dhaka","country_code":"BD","os_id":"BD2019083ZRNEPD","country_name":"Bangladesh","has_approved_claim":false,"ppe_product_types":null,"ppe_contact_phone":null,"ppe_contact_email":null,"ppe_website":null,"is_closed":null}},{"id":"CN2020085B3M7DR","type":"Feature","geometry":{"type":"Point","coordinates":[120.7100275,31.5007964]},"properties":{"name":"CREATION TEXTILES CO LTD","address":"NO. 12 SHITIAN ROAD, YANGCHENGHU TOWN, XIANGCHENG DISTRICT SUZHOU JIANGSU CHINA 215100","country_code":"CN","os_id":"CN2020085B3M7DR","country_name":"China","has_approved_claim":false,"ppe_product_types":null,"ppe_contact_phone":null,"ppe_contact_email":null,"ppe_website":null,"is_closed":null}},{"id":"BR202105571YSEG","type":"Feature","geometry":{"type":"Point","coordinates":[-49.40850349999999,-23.4483121]},"properties":{"name":"Creative Jeans Confeccoes De Taguai Eireli","address":"Rua Santa Rita, 17, 1889000, Taguaí","country_code":"BR","os_id":"BR202105571YSEG","country_name":"Brazil","has_approved_claim":false,"ppe_product_types":null,"ppe_contact_phone":null,"ppe_contact_email":null,"ppe_website":null,"is_closed":null}},{"id":"BR2021253QSBJK3","type":"Feature","geometry":{"type":"Point","coordinates":[-48.9483712,-27.0478399]},"properties":{"name":"CRL Confecções Ltda","address":"Schwamback, 229, São Pedro, Guabiruba","country_code":"BR","os_id":"BR2021253QSBJK3","country_name":"Brazil","has_approved_claim":false,"ppe_product_types":null,"ppe_contact_phone":null,"ppe_contact_email":null,"ppe_website":null,"is_closed":null}},{"id":"BD2019083T9299M","type":"Feature","geometry":{"type":"Point","coordinates":[90.3570348,23.9026162]},"properties":{"name":"Crossline Knit Fabrics Ltd.","address":"3/C Vardam, Nishatnagar, Tongi, Dhaka","country_code":"BD","os_id":"BD2019083T9299M","country_name":"Bangladesh","has_approved_claim":false,"ppe_product_types":null,"ppe_contact_phone":null,"ppe_contact_email":null,"ppe_website":null,"is_closed":null}},{"id":"PK2019098HY008F","type":"Feature","geometry":{"type":"Point","coordinates":[67.0155142,24.9066498]},"properties":{"name":"Crown Textile Unit No.II","address":"Plot No. D-249/C1,S.I.T.E,Karachi,Sindh,Pakistan","country_code":"PK","os_id":"PK2019098HY008F","country_name":"Pakistan","has_approved_claim":false,"ppe_product_types":["Knitted Garments"],"ppe_contact_phone":"+92-320-1210847","ppe_contact_email":"asst.compliance2@crowntex.com.pk","ppe_website":"https://www.crowntexpk.com/","is_closed":null}},{"id":"BD2019259SMZBZR","type":"Feature","geometry":{"type":"Point","coordinates":[90.39970249999999,24.2257628]},"properties":{"name":"CROWN WOOL WEAR LTD","address":"PLOT# 1,2,3,7, Kewa Mawna Bazar Road, Mawna, Sreepur Gazipur","country_code":"BD","os_id":"BD2019259SMZBZR","country_name":"Bangladesh","has_approved_claim":false,"ppe_product_types":null,"ppe_contact_phone":null,"ppe_contact_email":null,"ppe_website":null,"is_closed":null}},{"id":"BR2019085KJAGET","type":"Feature","geometry":{"type":"Point","coordinates":[-53.00040449999999,-26.9284953]},"properties":{"name":"DASS SUL CALÇADOS E ARTIGOS ESPORTIVOS LTDA","address":"MARCILIO DIAS, 10 SAUDADES SC 89868-000","country_code":"BR","os_id":"BR2019085KJAGET","country_name":"Brazil","has_approved_claim":false,"ppe_product_types":null,"ppe_contact_phone":null,"ppe_contact_email":null,"ppe_website":null,"is_closed":null}},{"id":"BD201908621GPZ8","type":"Feature","geometry":{"type":"Point","coordinates":[90.307703,23.931745]},"properties":{"name":"Dekko Washing Ltd.","address":"Narshinghapur, Ashulia, Savar","country_code":"BD","os_id":"BD201908621GPZ8","country_name":"Bangladesh","has_approved_claim":false,"ppe_product_types":null,"ppe_contact_phone":null,"ppe_contact_email":null,"ppe_website":null,"is_closed":null}},{"id":"TW2019087XY19DR","type":"Feature","geometry":{"type":"Point","coordinates":[120.295257,23.090255]},"properties":{"name":"De Licacy Industrial Co., Ltd.","address":"No. 240, Sanshe, Xinshi Dist., Tainan, 744007","country_code":"TW","os_id":"TW2019087XY19DR","country_name":"Taiwan","has_approved_claim":false,"ppe_product_types":null,"ppe_contact_phone":null,"ppe_contact_email":null,"ppe_website":null,"is_closed":null}},{"id":"BD2020021KSH0JW","type":"Feature","geometry":{"type":"Point","coordinates":[91.8106564,22.3877462]},"properties":{"name":"DELUXE FASHIONS LTD.","address":"178/179 BAIZID BOSTAMI ROAD, P.S. BAIZID, 4210 Chittagong","country_code":"BD","os_id":"BD2020021KSH0JW","country_name":"Bangladesh","has_approved_claim":false,"ppe_product_types":null,"ppe_contact_phone":null,"ppe_contact_email":null,"ppe_website":null,"is_closed":null}},{"id":"TN2019083KQHVFY","type":"Feature","geometry":{"type":"Point","coordinates":[10.8986253,35.6519436]},"properties":{"name":"Denim House","address":"Zone Industrielle Ksar Hellal Monastir","country_code":"TN","os_id":"TN2019083KQHVFY","country_name":"Tunisia","has_approved_claim":false,"ppe_product_types":null,"ppe_contact_phone":null,"ppe_contact_email":null,"ppe_website":null,"is_closed":null}},{"id":"CN201927681RFPJ","type":"Feature","geometry":{"type":"Point","coordinates":[120.2865975,30.6252688]},"properties":{"name":"Deqing Haohao Garment Co., Ltd","address":"xingyuan road, 28, xinshi town, deqing, huzhou, zhejiang","country_code":"CN","os_id":"CN201927681RFPJ","country_name":"China","has_approved_claim":false,"ppe_product_types":null,"ppe_contact_phone":null,"ppe_contact_email":null,"ppe_website":null,"is_closed":null}},{"id":"CN2020191A0334M","type":"Feature","geometry":{"type":"Point","coordinates":[120.2851015,30.6251956]},"properties":{"name":"De Qing Sheng Tian Garments Co.,Ltd","address":"NO.18 Faxiang RD.,Industrial park, Xinshi Town, Deqing,Zhejiang,China, Huzhou","country_code":"CN","os_id":"CN2020191A0334M","country_name":"China","has_approved_claim":false,"ppe_product_types":null,"ppe_contact_phone":null,"ppe_contact_email":null,"ppe_website":null,"is_closed":null}},{"id":"BD2019083N1TBTJ","type":"Feature","geometry":{"type":"Point","coordinates":[90.27326210000001,23.9501366]},"properties":{"name":"Dhakarea Ltd.","address":"23-27 Dhaka Export Processing Zone (Depz) Extension Zone Ganakbari Ashulia Dhaka. Dhaka Dhaka","country_code":"BD","os_id":"BD2019083N1TBTJ","country_name":"Bangladesh","has_approved_claim":false,"ppe_product_types":null,"ppe_contact_phone":null,"ppe_contact_email":null,"ppe_website":null,"is_closed":null}},{"id":"BD2019248Z42WDE","type":"Feature","geometry":{"type":"Point","coordinates":[90.3812102,23.9895353]},"properties":{"name":"Diganta Sweaters Ltd.","address":"Tangail Road, Nawjor, Chandana Chowrasta, Bashan, Gazipur-1702","country_code":"BD","os_id":"BD2019248Z42WDE","country_name":"Bangladesh","has_approved_claim":false,"ppe_product_types":null,"ppe_contact_phone":null,"ppe_contact_email":null,"ppe_website":null,"is_closed":null}},{"id":"BD2019248MHBSHT","type":"Feature","geometry":{"type":"Point","coordinates":[90.23795229999999,24.0478735]},"properties":{"name":"Divine Textile Ltd. (Unit-2)","address":"Palli Bidyut Road, Horinhati, Chandra, Kaliakair, Gazipur-1750","country_code":"BD","os_id":"BD2019248MHBSHT","country_name":"Bangladesh","has_approved_claim":false,"ppe_product_types":null,"ppe_contact_phone":null,"ppe_contact_email":null,"ppe_website":null,"is_closed":null}},{"id":"BR2020253E7G9CW","type":"Feature","geometry":{"type":"Point","coordinates":[-48.86119619999999,-26.2632423]},"properties":{"name":"Dohler S.A","address":"R. Arno W. Dohler, 145, 89219902, Joinville,","country_code":"BR","os_id":"BR2020253E7G9CW","country_name":"Brazil","has_approved_claim":false,"ppe_product_types":null,"ppe_contact_phone":null,"ppe_contact_email":null,"ppe_website":null,"is_closed":null}},{"id":"VN2019083GFRDED","type":"Feature","geometry":{"type":"Point","coordinates":[108.3612602,15.7380811]},"properties":{"name":"Domex (Quang Nam) Company Limited","address":"Lot B/B1, Ha Lam Industrial Group, Binh Phuc Commune, Duoc Market, Thang Binh District, Quang Nam, 51000","country_code":"VN","os_id":"VN2019083GFRDED","country_name":"Vietnam","has_approved_claim":false,"ppe_product_types":null,"ppe_contact_phone":null,"ppe_contact_email":null,"ppe_website":null,"is_closed":null}},{"id":"CN20190977DY2DE","type":"Feature","geometry":{"type":"Point","coordinates":[113.836187,23.0080486]},"properties":{"name":"Dongguan Cason Knit Co., Ltd","address":"No. 61 East Xiangyuan Road, Shangtun Vilage, Liaobu Town, Dongguan, Guangdong","country_code":"CN","os_id":"CN20190977DY2DE","country_name":"China","has_approved_claim":false,"ppe_product_types":null,"ppe_contact_phone":null,"ppe_contact_email":null,"ppe_website":null,"is_closed":null}},{"id":"CN2020066K35S4S","type":"Feature","geometry":{"type":"Point","coordinates":[113.802516,22.814768]},"properties":{"name":"Dongguan Dong Hing Label  Embroider","address":"Chang An Town, Shang Sha District, Dongguan, Guangdong","country_code":"CN","os_id":"CN2020066K35S4S","country_name":"China","has_approved_claim":false,"ppe_product_types":null,"ppe_contact_phone":null,"ppe_contact_email":null,"ppe_website":null,"is_closed":null}},{"id":"CN2019083MJCTBZ","type":"Feature","geometry":{"type":"Point","coordinates":[113.672342,22.793334]},"properties":{"name":"Dongguan Hongding Leatherware Co., Ltd.","address":"North Of Hongye Road Xinwan Humen Town Dongguan Guangdong","country_code":"CN","os_id":"CN2019083MJCTBZ","country_name":"China","has_approved_claim":false,"ppe_product_types":null,"ppe_contact_phone":null,"ppe_contact_email":null,"ppe_website":null,"is_closed":null}},{"id":"CN202118275VT9B","type":"Feature","geometry":{"type":"Point","coordinates":[114.0076061,22.9479766]},"properties":{"name":"Dongguan Yeji Industrial Company Limited","address":"Room 101, No.3 Building, No.112,  Changhuang Road, Changping Town, Dongguan City, Guangdong Province, China","country_code":"CN","os_id":"CN202118275VT9B","country_name":"China","has_approved_claim":false,"ppe_product_types":null,"ppe_contact_phone":null,"ppe_contact_email":null,"ppe_website":null,"is_closed":null}},{"id":"CN2019098WYG620","type":"Feature","geometry":{"type":"Point","coordinates":[114.017874,23.004267]},"properties":{"name":"Dongguan Zhongyu Knitting Factory Limited","address":"The Third Industrial park, Baishigang, Changping Town, dongguan, Guangdong, China,China","country_code":"CN","os_id":"CN2019098WYG620","country_name":"China","has_approved_claim":false,"ppe_product_types":null,"ppe_contact_phone":null,"ppe_contact_email":null,"ppe_website":null,"is_closed":null}},{"id":"CN2021294R8FZWF","type":"Feature","geometry":{"type":"Point","coordinates":[120.218194,29.307554]},"properties":{"name":"Dongyang Ludewei Leather Products C","address":"200 Hulian West Road, Jiangbei Industrial Park, Dongyang, Zhejiang, EX","country_code":"CN","os_id":"CN2021294R8FZWF","country_name":"China","has_approved_claim":false,"ppe_product_types":null,"ppe_contact_phone":null,"ppe_contact_email":null,"ppe_website":null,"is_closed":null}},{"id":"BR2020034EFGE71","type":"Feature","geometry":{"type":"Point","coordinates":[-49.0665906,-26.8474203]},"properties":{"name":"Dr Estamparia Ltda - Me","address":"Rua Guilherme Scharf, 2315 - Galpão,89060000,Blumenau","country_code":"BR","os_id":"BR2020034EFGE71","country_name":"Brazil","has_approved_claim":false,"ppe_product_types":null,"ppe_contact_phone":null,"ppe_contact_email":null,"ppe_website":null,"is_closed":null}},{"id":"PK20190874WVFBB","type":"Feature","geometry":{"type":"Point","coordinates":[74.1705507,31.4221629]},"properties":{"name":"Dynamic Sportswear Pvt Ltd","address":"Main Canal Bank Chung Punjgran Multan Road","country_code":"PK","os_id":"PK20190874WVFBB","country_name":"Pakistan","has_approved_claim":false,"ppe_product_types":null,"ppe_contact_phone":null,"ppe_contact_email":null,"ppe_website":null,"is_closed":null}},{"id":"LK20190879KF3JJ","type":"Feature","geometry":{"type":"Point","coordinates":[80.0048178,6.9668652]},"properties":{"name":"Dynawash Limited","address":"Block A, Export Processing Zone, Biyagama","country_code":"LK","os_id":"LK20190879KF3JJ","country_name":"Sri Lanka","has_approved_claim":false,"ppe_product_types":null,"ppe_contact_phone":null,"ppe_contact_email":null,"ppe_website":null,"is_closed":null}},{"id":"LK20210062T2YRP","type":"Feature","geometry":{"type":"Point","coordinates":[80.7118951,6.6619535]},"properties":{"name":"EAM Maliban Textiles (Pvt) Ltd (Balangoda)","address":"Rye Estate, Pinnawala Road, Balangoda, Sabaragamuwa","country_code":"LK","os_id":"LK20210062T2YRP","country_name":"Sri Lanka","has_approved_claim":false,"ppe_product_types":null,"ppe_contact_phone":null,"ppe_contact_email":null,"ppe_website":null,"is_closed":null}},{"id":"BR20201918R0CYD","type":"Feature","geometry":{"type":"Point","coordinates":[-49.366912,-28.7618333]},"properties":{"name":"Ease Indústria e Comércio de Confecções Ltda","address":"Rodovia Luiz Rosso, 8130, Criciúma","country_code":"BR","os_id":"BR20201918R0CYD","country_name":"Brazil","has_approved_claim":false,"ppe_product_types":null,"ppe_contact_phone":null,"ppe_contact_email":null,"ppe_website":null,"is_closed":null}},{"id":"TR2020009XVH084","type":"Feature","geometry":{"type":"Point","coordinates":[27.0297901,41.4396012]},"properties":{"name":"Ecose Konfeksiyon Ithalat Ve Ihracat San Tic As","address":"Dindogru Mahallesi Pehlivankoy Yolu Cimenlidere Mevkii Bekler Kume Evler No10 Babaeski Kirkareli Turkey","country_code":"TR","os_id":"TR2020009XVH084","country_name":"Türkiye","has_approved_claim":false,"ppe_product_types":null,"ppe_contact_phone":null,"ppe_contact_email":null,"ppe_website":null,"is_closed":null}},{"id":"BR2019086WYZKYR","type":"Feature","geometry":{"type":"Point","coordinates":[-48.9435228,-27.0992184]},"properties":{"name":"Edvan Malhas Ltda","address":"R.Frederico Petrusky, 88350610, Brusque, Brazil","country_code":"BR","os_id":"BR2019086WYZKYR","country_name":"Brazil","has_approved_claim":false,"ppe_product_types":null,"ppe_contact_phone":null,"ppe_contact_email":null,"ppe_website":null,"is_closed":null}},{"id":"TR2020084V7YDWZ","type":"Feature","geometry":{"type":"Point","coordinates":[29.2380901,37.808197]},"properties":{"name":"EKPEN TEKSTIL SAN.VE TIC A.S.","address":"SERVERGAZI CAD., ORGANIZE SANAYI 1.BOLGE NO:12 20000, DENIZLI","country_code":"TR","os_id":"TR2020084V7YDWZ","country_name":"Türkiye","has_approved_claim":false,"ppe_product_types":null,"ppe_contact_phone":null,"ppe_contact_email":null,"ppe_website":null,"is_closed":null}},{"id":"TR2021018TTTDQ6","type":"Feature","geometry":{"type":"Point","coordinates":[30.647155,39.7453369]},"properties":{"name":"Ekspres Triko Orme Sanayi Ticaret Limited Sirketi","address":"2 Organize Sanayi Bolgesi 9 Cadde No 13 Malatya","country_code":"TR","os_id":"TR2021018TTTDQ6","country_name":"Türkiye","has_approved_claim":false,"ppe_product_types":null,"ppe_contact_phone":null,"ppe_contact_email":null,"ppe_website":null,"is_closed":null}},{"id":"TR2021120Y3MWGF","type":"Feature","geometry":{"type":"Point","coordinates":[27.0421329,38.4980912]},"properties":{"name":"ELIF SUZENE NAKIS BASKI TEKSTIL SAN. TIC. LTD. STI.","address":"Ataturk OSB, 10026 Sokak No:30,\nCigli Izmir","country_code":"TR","os_id":"TR2021120Y3MWGF","country_name":"Türkiye","has_approved_claim":false,"ppe_product_types":null,"ppe_contact_phone":null,"ppe_contact_email":null,"ppe_website":null,"is_closed":null}},{"id":"TR2020219RMV276","type":"Feature","geometry":{"type":"Point","coordinates":[28.9179491,41.0242342]},"properties":{"name":"Eligul Corap San. Ve Tic. Ltd. Sti.","address":"Topkapı, Litros Yolu/yol Sok. No:3 D:1/c, 34010, 34100,  Zeytinburnu, Istanbul","country_code":"TR","os_id":"TR2020219RMV276","country_name":"Türkiye","has_approved_claim":false,"ppe_product_types":null,"ppe_contact_phone":null,"ppe_contact_email":null,"ppe_website":null,"is_closed":null}},{"id":"IN2019098MDP8AX","type":"Feature","geometry":{"type":"Point","coordinates":[77.375652,28.624557]},"properties":{"name":"Elize Computer Embroidery","address":"B-6, Sector 59, Noida, Uttar Pradesh, 201301","country_code":"IN","os_id":"IN2019098MDP8AX","country_name":"India","has_approved_claim":false,"ppe_product_types":null,"ppe_contact_phone":null,"ppe_contact_email":null,"ppe_website":null,"is_closed":null}},{"id":"BD2019083HCXAQR","type":"Feature","geometry":{"type":"Point","coordinates":[90.3744323,23.8867027]},"properties":{"name":"Entrust Fashions Ltd","address":"46/1 Nayanagar Main Road Chairmanbari Mor Nayanagar Turag Dhaka-1230","country_code":"BD","os_id":"BD2019083HCXAQR","country_name":"Bangladesh","has_approved_claim":false,"ppe_product_types":null,"ppe_contact_phone":null,"ppe_contact_email":null,"ppe_website":null,"is_closed":null}},{"id":"TR2020010987N91","type":"Feature","geometry":{"type":"Point","coordinates":[28.5974969,41.2328689]},"properties":{"name":"ERSIN DIS TICARET VE TEKSTIL SAN LTD STI","address":"HADIMKOY CADDESI NO 35/A  KARAAGACMAHALLESI  BUYUKCEKMECE  ISTANBUL  Turkey","country_code":"TR","os_id":"TR2020010987N91","country_name":"Türkiye","has_approved_claim":false,"ppe_product_types":null,"ppe_contact_phone":null,"ppe_contact_email":null,"ppe_website":null,"is_closed":null}},{"id":"BD2021337RJ83DT","type":"Feature","geometry":{"type":"Point","coordinates":[90.271563,23.981687]},"properties":{"name":"Esses Fashions Ltd.","address":"BEXIMCO Industrial Park, Sarabo, Kashimpur, Gazipur-1346","country_code":"BD","os_id":"BD2021337RJ83DT","country_name":"Bangladesh","has_approved_claim":false,"ppe_product_types":null,"ppe_contact_phone":null,"ppe_contact_email":null,"ppe_website":null,"is_closed":null}},{"id":"CN2022075Q50256","type":"Feature","geometry":{"type":"Point","coordinates":[113.93997,23.08922]},"properties":{"name":"Ever-Blooming Manufactory Enterprises","address":"Room 201, Block 2, 99 Shi Pai Da Road West , Shipai Town, - Dongguan City - (Guangdong)","country_code":"CN","os_id":"CN2022075Q50256","country_name":"China","has_approved_claim":false,"ppe_product_types":null,"ppe_contact_phone":null,"ppe_contact_email":null,"ppe_website":null,"is_closed":null}}]