[{"id":"BR2020057NB350C","type":"Feature","geometry":{"type":"Point","coordinates":[-51.1519369,-23.265963]},"properties":{"name":"NKF Confeccoes Ltda","address":"R. Cardeal, 177,86088-210,Londrina","country_code":"BR","os_id":"BR2020057NB350C","country_name":"Brazil","has_approved_claim":false,"ppe_product_types":null,"ppe_contact_phone":null,"ppe_contact_email":null,"ppe_website":null,"is_closed":null}},{"id":"CN2020084DM7KTP","type":"Feature","geometry":{"type":"Point","coordinates":[109.8386995,39.7992754]},"properties":{"name":"NO. 1 KNITTING MILL  OF INNER MONGOLIA ERDOS RESOURCES CO.,LTD","address":"NO.1,QINGFANG STREET, HANTAI TOWN, DONGSHENG DISTRICT 017000, ERDOS","country_code":"CN","os_id":"CN2020084DM7KTP","country_name":"China","has_approved_claim":false,"ppe_product_types":null,"ppe_contact_phone":null,"ppe_contact_email":null,"ppe_website":null,"is_closed":null}},{"id":"IT2019085CYMZRB","type":"Feature","geometry":{"type":"Point","coordinates":[10.4698047,45.2849047]},"properties":{"name":"NORMAN SRL","address":"Via Grecia 2/4, Castel Goffredo, Mantova, 46042","country_code":"IT","os_id":"IT2019085CYMZRB","country_name":"Italy","has_approved_claim":false,"ppe_product_types":null,"ppe_contact_phone":null,"ppe_contact_email":null,"ppe_website":null,"is_closed":null}},{"id":"BR2021260VADBJG","type":"Feature","geometry":{"type":"Point","coordinates":[-48.9515427,-27.1201736]},"properties":{"name":"NR CONFECCOES EIRELI","address":"R FRANCISCO HAAG, 740 -\nBrusque, SC","country_code":"BR","os_id":"BR2021260VADBJG","country_name":"Brazil","has_approved_claim":false,"ppe_product_types":null,"ppe_contact_phone":null,"ppe_contact_email":null,"ppe_website":null,"is_closed":null}},{"id":"BD2019176WY6TTM","type":"Feature","geometry":{"type":"Point","coordinates":[90.4773694,23.6152708]},"properties":{"name":"NRG Knit Composite ( Unit -1)","address":"Enayetnagar, Volail, Fatullah  Dhaka","country_code":"BD","os_id":"BD2019176WY6TTM","country_name":"Bangladesh","has_approved_claim":false,"ppe_product_types":null,"ppe_contact_phone":null,"ppe_contact_email":null,"ppe_website":null,"is_closed":null}},{"id":"PT20201481WCC0A","type":"Feature","geometry":{"type":"Point","coordinates":[-8.4901427,41.31589839999999]},"properties":{"name":"Nuri SA","address":"Travessa de Nova Industria, No 50 Apartada 130 Santo Tirso 4784 909","country_code":"PT","os_id":"PT20201481WCC0A","country_name":"Portugal","has_approved_claim":false,"ppe_product_types":null,"ppe_contact_phone":null,"ppe_contact_email":null,"ppe_website":null,"is_closed":null}},{"id":"TR2022076HAEQC5","type":"Feature","geometry":{"type":"Point","coordinates":[42.0478958,38.5715255]},"properties":{"name":"NUR YAPI TEKSTIL SANAYI VE","address":"SIRINTEPE MAH.  120.SOK., BLOK NO:34, GUROYMAK, BITLIS, Bitlis","country_code":"TR","os_id":"TR2022076HAEQC5","country_name":"Türkiye","has_approved_claim":false,"ppe_product_types":null,"ppe_contact_phone":null,"ppe_contact_email":null,"ppe_website":null,"is_closed":null}},{"id":"BR2019086YKFASH","type":"Feature","geometry":{"type":"Point","coordinates":[-47.0046616,-23.6043409]},"properties":{"name":"Nutri Toy Artefatos De Couro Erepresentacoes Ltda - Me","address":"R.Rosana, 6730000, Vargem Grande Paulista, Brazil","country_code":"BR","os_id":"BR2019086YKFASH","country_name":"Brazil","has_approved_claim":false,"ppe_product_types":null,"ppe_contact_phone":null,"ppe_contact_email":null,"ppe_website":null,"is_closed":null}},{"id":"BR2019086QDSW18","type":"Feature","geometry":{"type":"Point","coordinates":[-49.1391151,-26.8647057]},"properties":{"name":"Nyco-Tex Confecção Ltda","address":"Rua Philipp Bauler, Nº 500 Blumenau  03226-010","country_code":"BR","os_id":"BR2019086QDSW18","country_name":"Brazil","has_approved_claim":false,"ppe_product_types":null,"ppe_contact_phone":null,"ppe_contact_email":null,"ppe_website":null,"is_closed":null}},{"id":"BD20191765QTVBW","type":"Feature","geometry":{"type":"Point","coordinates":[90.5580021,23.7712758]},"properties":{"name":"Nz Fabrics Ltd","address":"Balaika, Vulta Narayanganj Narayanganj","country_code":"BD","os_id":"BD20191765QTVBW","country_name":"Bangladesh","has_approved_claim":false,"ppe_product_types":null,"ppe_contact_phone":null,"ppe_contact_email":null,"ppe_website":null,"is_closed":null}},{"id":"LK2020204V2Z89E","type":"Feature","geometry":{"type":"Point","coordinates":[79.9933409,6.8697739]},"properties":{"name":"Ocean Lanka (PVT) Ltd.","address":"Block B, BEPZ, Walgama, Malwana Biyagama- 11670 (Western Province)","country_code":"LK","os_id":"LK2020204V2Z89E","country_name":"Sri Lanka","has_approved_claim":false,"ppe_product_types":null,"ppe_contact_phone":null,"ppe_contact_email":null,"ppe_website":null,"is_closed":null}},{"id":"BR2021253CVQ7HS","type":"Feature","geometry":{"type":"Point","coordinates":[-49.0884777,-26.8231025]},"properties":{"name":"OENNING BORDADOS LTDA","address":"R CARLOS PAGEL, 86, ITOUPAVA CENTRAL, Blumenau","country_code":"BR","os_id":"BR2021253CVQ7HS","country_name":"Brazil","has_approved_claim":false,"ppe_product_types":null,"ppe_contact_phone":null,"ppe_contact_email":null,"ppe_website":null,"is_closed":null}},{"id":"IT2020053RHD8JS","type":"Feature","geometry":{"type":"Point","coordinates":[12.20504,45.73158]},"properties":{"name":"Olimpias Group S.r.l. - Ponzano Veneto","address":"Via delle Tezze, 1 Ponzano Veneto Treviso 31050","country_code":"IT","os_id":"IT2020053RHD8JS","country_name":"Italy","has_approved_claim":false,"ppe_product_types":null,"ppe_contact_phone":null,"ppe_contact_email":null,"ppe_website":null,"is_closed":null}},{"id":"BD2019248KHRKWB","type":"Feature","geometry":{"type":"Point","coordinates":[90.3879975,23.9357893]},"properties":{"name":"Onus Design Ltd.","address":"Joy Bangla Road, Kunia, Boro Bari, Gacha, Gazipur-1704","country_code":"BD","os_id":"BD2019248KHRKWB","country_name":"Bangladesh","has_approved_claim":false,"ppe_product_types":null,"ppe_contact_phone":null,"ppe_contact_email":null,"ppe_website":null,"is_closed":null}},{"id":"BD2020052YNGFHM","type":"Feature","geometry":{"type":"Point","coordinates":[90.3043385,23.9431443]},"properties":{"name":"ORBITEX KNITWEAR LIMITED","address":"GORAT, SARKER MARKET ROAD, ASHULIA Dhaka","country_code":"BD","os_id":"BD2020052YNGFHM","country_name":"Bangladesh","has_approved_claim":false,"ppe_product_types":null,"ppe_contact_phone":null,"ppe_contact_email":null,"ppe_website":null,"is_closed":null}},{"id":"IN2019083AY6TMA","type":"Feature","geometry":{"type":"Point","coordinates":[77.08357140000001,28.5123736]},"properties":{"name":"Orchid Overseas Ltd","address":"Plot No 128 133 Udyog Vihar Phase - I Gurgaon Haryana","country_code":"IN","os_id":"IN2019083AY6TMA","country_name":"India","has_approved_claim":false,"ppe_product_types":null,"ppe_contact_phone":null,"ppe_contact_email":null,"ppe_website":null,"is_closed":null}},{"id":"CN2020268HC0WRP","type":"Feature","geometry":{"type":"Point","coordinates":[116.492792,35.694538]},"properties":{"name":"Orient Rongheng Lingerie Co., Ltd","address":"No.6 Fodu Road, Economic Development Zone, Wenshang, Jining, Shandong, China","country_code":"CN","os_id":"CN2020268HC0WRP","country_name":"China","has_approved_claim":false,"ppe_product_types":null,"ppe_contact_phone":null,"ppe_contact_email":null,"ppe_website":null,"is_closed":null}},{"id":"LK2021055M85Z4A","type":"Feature","geometry":{"type":"Point","coordinates":[80.7810179,7.156322]},"properties":{"name":"Original Apparel (Pvt) Ltd - Hanguranketha","address":"Ragala Road, 20710, Kandy","country_code":"LK","os_id":"LK2021055M85Z4A","country_name":"Sri Lanka","has_approved_claim":false,"ppe_product_types":null,"ppe_contact_phone":null,"ppe_contact_email":null,"ppe_website":null,"is_closed":null}},{"id":"TR2019083QQ5KWZ","type":"Feature","geometry":{"type":"Point","coordinates":[27.7275095,41.2201736]},"properties":{"name":"Örkum Tekstil San. Ve Tic. A.S","address":"Asfalt boyu küme evler, 9/14, Ergene OSB 59870 Ergene Tekirdag Tekirdag","country_code":"TR","os_id":"TR2019083QQ5KWZ","country_name":"Türkiye","has_approved_claim":false,"ppe_product_types":null,"ppe_contact_phone":null,"ppe_contact_email":null,"ppe_website":null,"is_closed":null}},{"id":"TR2020191887Z2D","type":"Feature","geometry":{"type":"Point","coordinates":[29.0618291,40.226173]},"properties":{"name":"Ozdilek Ev Tekstil San ve Tic A.S","address":"Soganli Mah. Istanbul Cad. No:343 Osmangazi, Bursa","country_code":"TR","os_id":"TR2020191887Z2D","country_name":"Türkiye","has_approved_claim":false,"ppe_product_types":null,"ppe_contact_phone":null,"ppe_contact_email":null,"ppe_website":null,"is_closed":null}},{"id":"TR20192594B88KM","type":"Feature","geometry":{"type":"Point","coordinates":[27.037454,38.49761]},"properties":{"name":"OZGUN BOYA SAN. TIC. A.S.","address":"MUSTAFA KEMAL ATATURK BULVARI NO 54 A.O.S.B CIGLI IZMIR - IZMIR","country_code":"TR","os_id":"TR20192594B88KM","country_name":"Türkiye","has_approved_claim":false,"ppe_product_types":null,"ppe_contact_phone":null,"ppe_contact_email":null,"ppe_website":null,"is_closed":null}},{"id":"CN2021146ZEMR60","type":"Feature","geometry":{"type":"Point","coordinates":[108.8903746,23.824123]},"properties":{"name":"PAC-FUNG HOME TEXTILES (HESHAN) CO LTD","address":"12 WEST JIANSHE RD TAO YUAN TOWN GD HESHAN","country_code":"CN","os_id":"CN2021146ZEMR60","country_name":"China","has_approved_claim":false,"ppe_product_types":null,"ppe_contact_phone":null,"ppe_contact_email":null,"ppe_website":null,"is_closed":null}},{"id":"BD202206765VSG8","type":"Feature","geometry":{"type":"Point","coordinates":[90.2602438,23.8575115]},"properties":{"name":"Pacific Blue (Jeans Wear) Ltd.","address":"A-8/1, Jalesshar, Savar, Dhaka-1343, Bangladesh","country_code":"BD","os_id":"BD202206765VSG8","country_name":"Bangladesh","has_approved_claim":false,"ppe_product_types":null,"ppe_contact_phone":null,"ppe_contact_email":null,"ppe_website":null,"is_closed":null}},{"id":"BD2021273KQMF8C","type":"Feature","geometry":{"type":"Point","coordinates":[90.27326210000001,23.9501366]},"properties":{"name":"Paddock Jeans","address":"Plot # 106-108, Dhaka Export Processing Zone, Ganakbari, Ashulia, Savar, Savar,","country_code":"BD","os_id":"BD2021273KQMF8C","country_name":"Bangladesh","has_approved_claim":false,"ppe_product_types":null,"ppe_contact_phone":null,"ppe_contact_email":null,"ppe_website":null,"is_closed":null}},{"id":"BR2020034M71FT4","type":"Feature","geometry":{"type":"Point","coordinates":[-46.5178072,-23.6138799]},"properties":{"name":"Pafersil Confeccao E Comercio De Roupas Ltda","address":"Rua Serra Do Navio, 326 ,3981060,São Paulo","country_code":"BR","os_id":"BR2020034M71FT4","country_name":"Brazil","has_approved_claim":false,"ppe_product_types":null,"ppe_contact_phone":null,"ppe_contact_email":null,"ppe_website":null,"is_closed":null}},{"id":"IT20190868Q5V6W","type":"Feature","geometry":{"type":"Point","coordinates":[9.1545156,45.5277789]},"properties":{"name":"Pantytex Spa","address":"Via Damiano Chiesa 92/98, 20026 Novate Milanese (MN)","country_code":"IT","os_id":"IT20190868Q5V6W","country_name":"Italy","has_approved_claim":false,"ppe_product_types":null,"ppe_contact_phone":null,"ppe_contact_email":null,"ppe_website":null,"is_closed":null}},{"id":"IN2019181FX4XJC","type":"Feature","geometry":{"type":"Point","coordinates":[75.6506455,22.6149021]},"properties":{"name":"Papcon Indore (Pvt)","address":"Plot Np. 103 Industrial Area Pithampur Sector No.1 Mhow-Neemuch Road Pithampur","country_code":"IN","os_id":"IN2019181FX4XJC","country_name":"India","has_approved_claim":false,"ppe_product_types":null,"ppe_contact_phone":null,"ppe_contact_email":null,"ppe_website":null,"is_closed":null}},{"id":"BD20202042HHJ28","type":"Feature","geometry":{"type":"Point","coordinates":[90.431357,23.8978071]},"properties":{"name":"Paradise Washing Plant Ltd","address":"227/4 Kabi Jashim Uddin Road, Pagar Tongi, Gazipur. DHAKA","country_code":"BD","os_id":"BD20202042HHJ28","country_name":"Bangladesh","has_approved_claim":false,"ppe_product_types":null,"ppe_contact_phone":null,"ppe_contact_email":null,"ppe_website":null,"is_closed":null}},{"id":"IN20203088FJ7B1","type":"Feature","geometry":{"type":"Point","coordinates":[77.3811702,28.6209681]},"properties":{"name":"Paramount Products Private Limited (E16)","address":"E-16, Sector-63, Noida, U.P, India","country_code":"IN","os_id":"IN20203088FJ7B1","country_name":"India","has_approved_claim":false,"ppe_product_types":null,"ppe_contact_phone":null,"ppe_contact_email":null,"ppe_website":null,"is_closed":null}},{"id":"IN2020009R2DR25","type":"Feature","geometry":{"type":"Point","coordinates":[77.3968654,28.5272151]},"properties":{"name":"Parc Designs Pvt Ltd","address":"A 15 Sector 83 Noida Uttar Pradesh 201305 India","country_code":"IN","os_id":"IN2020009R2DR25","country_name":"India","has_approved_claim":false,"ppe_product_types":null,"ppe_contact_phone":null,"ppe_contact_email":null,"ppe_website":null,"is_closed":null}},{"id":"BR2019086TK1E0A","type":"Feature","geometry":{"type":"Point","coordinates":[-49.1079415,-26.8757521]},"properties":{"name":"Parigi Confeccoes Ltda","address":"Rua Pomerode, 89065300, Blumenau, Brazil","country_code":"BR","os_id":"BR2019086TK1E0A","country_name":"Brazil","has_approved_claim":false,"ppe_product_types":null,"ppe_contact_phone":null,"ppe_contact_email":null,"ppe_website":null,"is_closed":null}},{"id":"BR2020315B2R73G","type":"Feature","geometry":{"type":"Point","coordinates":[-49.0939539,-26.870623]},"properties":{"name":"Parigi Confecções Ltda","address":"Rua Engenheiro Udo Deeke, 306 - Galpão 4, 89065101, Blumenau","country_code":"BR","os_id":"BR2020315B2R73G","country_name":"Brazil","has_approved_claim":false,"ppe_product_types":null,"ppe_contact_phone":null,"ppe_contact_email":null,"ppe_website":null,"is_closed":null}},{"id":"IN20191818BY49B","type":"Feature","geometry":{"type":"Point","coordinates":[78.7279103,28.8288622]},"properties":{"name":"Parth Overseas","address":"Opposite Modern Public Delhi Road Moradabad Uttar Pradesh","country_code":"IN","os_id":"IN20191818BY49B","country_name":"India","has_approved_claim":false,"ppe_product_types":null,"ppe_contact_phone":null,"ppe_contact_email":null,"ppe_website":null,"is_closed":null}},{"id":"BD2019241K9W9HB","type":"Feature","geometry":{"type":"Point","coordinates":[90.4107628,23.8925917]},"properties":{"name":"Patriot Eco Apparel Ltd","address":"Tongi Bisic Industrial Estate Plot NoB35 & 50 Gazipur","country_code":"BD","os_id":"BD2019241K9W9HB","country_name":"Bangladesh","has_approved_claim":false,"ppe_product_types":null,"ppe_contact_phone":null,"ppe_contact_email":null,"ppe_website":null,"is_closed":null}},{"id":"BD2019095NT5FMQ","type":"Feature","geometry":{"type":"Point","coordinates":[90.4809098,24.1996574]},"properties":{"name":"Peacock Garments and Print","address":"Holding#227/1, Block-A, Word-04, Vangnahti, Madrasha Road, Sreepur, Gazipur., 1700, Dhaka, Bangladesh","country_code":"BD","os_id":"BD2019095NT5FMQ","country_name":"Bangladesh","has_approved_claim":false,"ppe_product_types":null,"ppe_contact_phone":null,"ppe_contact_email":null,"ppe_website":null,"is_closed":null}},{"id":"VN2019096X2QE8B","type":"Feature","geometry":{"type":"Point","coordinates":[105.7704551,20.7337728]},"properties":{"name":"Pearl Vina Co. Ltd.","address":"Van Dinh Town, Ung Hoa District. Hanoi Vietnam","country_code":"VN","os_id":"VN2019096X2QE8B","country_name":"Vietnam","has_approved_claim":false,"ppe_product_types":null,"ppe_contact_phone":null,"ppe_contact_email":null,"ppe_website":null,"is_closed":null}},{"id":"BR2021253V2MM8G","type":"Feature","geometry":{"type":"Point","coordinates":[-49.1082335,-26.8397017]},"properties":{"name":"Pedro Jose Dalcoquio Embalagens Ltda","address":"Erwin Glau, 330, Itoupavazinha, Blumenau","country_code":"BR","os_id":"BR2021253V2MM8G","country_name":"Brazil","has_approved_claim":false,"ppe_product_types":null,"ppe_contact_phone":null,"ppe_contact_email":null,"ppe_website":null,"is_closed":null}},{"id":"TR2019098V1RM6H","type":"Feature","geometry":{"type":"Point","coordinates":[35.3713103,36.9644606]},"properties":{"name":"Perboya Tekstil San Ve Tic Ltd Sti","address":"Koza Mahallesi, Hosdere Yolu Kotcular San Sit 1674 Sk. No 15-23, Esenyurt, Istanbul, 34525","country_code":"TR","os_id":"TR2019098V1RM6H","country_name":"Türkiye","has_approved_claim":false,"ppe_product_types":null,"ppe_contact_phone":null,"ppe_contact_email":null,"ppe_website":null,"is_closed":null}},{"id":"IN2019176G4J731","type":"Feature","geometry":{"type":"Point","coordinates":[77.0171739,11.0283489]},"properties":{"name":"Perlei Textiles Pvt Ltd","address":"1/1,J-14,Sf No 350/1B,Thannerpandhal Colony,Anupparpalayam Tiruppur Tamil Nadu 641652","country_code":"IN","os_id":"IN2019176G4J731","country_name":"India","has_approved_claim":false,"ppe_product_types":null,"ppe_contact_phone":null,"ppe_contact_email":null,"ppe_website":null,"is_closed":null}},{"id":"CN2019085VQJG1Z","type":"Feature","geometry":{"type":"Point","coordinates":[113.86949,23.087676]},"properties":{"name":"P.H. Garment MFG. (DongGuan) Co. Ltd.","address":"Xin Wei Industrial Zone, Shi Long TownDongguan Guangdong","country_code":"CN","os_id":"CN2019085VQJG1Z","country_name":"China","has_approved_claim":false,"ppe_product_types":null,"ppe_contact_phone":null,"ppe_contact_email":null,"ppe_website":null,"is_closed":null}},{"id":"BD2019086B7MTZZ","type":"Feature","geometry":{"type":"Point","coordinates":[90.40882230000001,23.9010413]},"properties":{"name":"Pimkie Apparels Ltd.","address":"328 Tongi I/A, Gazipur","country_code":"BD","os_id":"BD2019086B7MTZZ","country_name":"Bangladesh","has_approved_claim":false,"ppe_product_types":null,"ppe_contact_phone":null,"ppe_contact_email":null,"ppe_website":null,"is_closed":null}},{"id":"CN2020066Y732S4","type":"Feature","geometry":{"type":"Point","coordinates":[120.9757656,30.6824179]},"properties":{"name":"Pinghu Huaxing Clothing Co.,Ltd","address":"No.338, Jingxing One Road, Caoqiao Street Pinghu, 314214, Pinghu, Jiaxing, Zhejiang","country_code":"CN","os_id":"CN2020066Y732S4","country_name":"China","has_approved_claim":false,"ppe_product_types":null,"ppe_contact_phone":null,"ppe_contact_email":null,"ppe_website":null,"is_closed":null}},{"id":"IT2019083C5E2WH","type":"Feature","geometry":{"type":"Point","coordinates":[11.079176,43.8701354]},"properties":{"name":"Pinori Filati Spa","address":"Via Eugenio Gestri, 19 59100 Tuscany Prato Prato","country_code":"IT","os_id":"IT2019083C5E2WH","country_name":"Italy","has_approved_claim":false,"ppe_product_types":null,"ppe_contact_phone":null,"ppe_contact_email":null,"ppe_website":null,"is_closed":null}},{"id":"BD2021266ZEFVCW","type":"Feature","geometry":{"type":"Point","coordinates":[90.266937,23.793813]},"properties":{"name":"Pioneer Apparels Ltd.","address":"37, Hemayetpur, Savar, 1340, Dhaka,","country_code":"BD","os_id":"BD2021266ZEFVCW","country_name":"Bangladesh","has_approved_claim":false,"ppe_product_types":null,"ppe_contact_phone":null,"ppe_contact_email":null,"ppe_website":null,"is_closed":null}},{"id":"VN2019108X75TFB","type":"Feature","geometry":{"type":"Point","coordinates":[106.5891091,20.8998122]},"properties":{"name":"P.I.T Vina Co Ltd","address":"An Hung Commune An Duong Hai Phong Vietnam","country_code":"VN","os_id":"VN2019108X75TFB","country_name":"Vietnam","has_approved_claim":false,"ppe_product_types":null,"ppe_contact_phone":null,"ppe_contact_email":null,"ppe_website":null,"is_closed":null}},{"id":"UA2019083F454Y7","type":"Feature","geometry":{"type":"Point","coordinates":[31.2803092,51.4876953]},"properties":{"name":"PJSC Chernihiv clothes factory “Elegant”","address":"Peremohy avenue, 41 14017  Chernihiv Chernigivs'ka","country_code":"UA","os_id":"UA2019083F454Y7","country_name":"Ukraine","has_approved_claim":false,"ppe_product_types":null,"ppe_contact_phone":null,"ppe_contact_email":null,"ppe_website":null,"is_closed":null}},{"id":"BR2020190SVRVAK","type":"Feature","geometry":{"type":"Point","coordinates":[-49.62597479999999,-27.0461332]},"properties":{"name":"PKS Confecções Ltda","address":"R. Ricardo Stein, 209Presidente Getúlio89150000","country_code":"BR","os_id":"BR2020190SVRVAK","country_name":"Brazil","has_approved_claim":false,"ppe_product_types":null,"ppe_contact_phone":null,"ppe_contact_email":null,"ppe_website":null,"is_closed":null}},{"id":"BR2020253G3PJPK","type":"Feature","geometry":{"type":"Point","coordinates":[-46.7294577,-23.3233727]},"properties":{"name":"Plie Confecções Ltda","address":"R Augusta Rosa, 01, 7859350, Franco da Rocha,","country_code":"BR","os_id":"BR2020253G3PJPK","country_name":"Brazil","has_approved_claim":false,"ppe_product_types":null,"ppe_contact_phone":null,"ppe_contact_email":null,"ppe_website":null,"is_closed":null}},{"id":"BD2019248Z4DY2G","type":"Feature","geometry":{"type":"Point","coordinates":[90.3726205,23.966459]},"properties":{"name":"Pole Star Fashion Design Ltd.","address":"Hazi Tower, Sharifpur, Gacha, Gazipur-1704","country_code":"BD","os_id":"BD2019248Z4DY2G","country_name":"Bangladesh","has_approved_claim":false,"ppe_product_types":null,"ppe_contact_phone":null,"ppe_contact_email":null,"ppe_website":null,"is_closed":null}},{"id":"BR2019086141PQ1","type":"Feature","geometry":{"type":"Point","coordinates":[-49.83223,-26.881753]},"properties":{"name":"Pontoconf Facção - Eireli","address":"Rua Vereador Francisco Roedel, 115 Vitor Meireles  89148-000","country_code":"BR","os_id":"BR2019086141PQ1","country_name":"Brazil","has_approved_claim":false,"ppe_product_types":null,"ppe_contact_phone":null,"ppe_contact_email":null,"ppe_website":null,"is_closed":null}}]