[{"id":"TR2020066QPSS0N","type":"Feature","geometry":{"type":"Point","coordinates":[29.2225261,40.98448279999999]},"properties":{"name":"Ersa Tekstil","address":"Eyup Sultan Mah. Ulubatli Hasan Cad. No: 26 Sancaktepe, Istanbul, 34885","country_code":"TR","os_id":"TR2020066QPSS0N","country_name":"Türkiye","has_approved_claim":false,"ppe_product_types":null,"ppe_contact_phone":null,"ppe_contact_email":null,"ppe_website":null,"is_closed":null}},{"id":"TR202006670YGZA","type":"Feature","geometry":{"type":"Point","coordinates":[26.9970153,38.3777936]},"properties":{"name":"Ersen Tekstil San.Tic.Ltd.Sti.","address":"Narlidere Mah. 24.Cad 8, 16450, Kestel, Bursa, Bursa","country_code":"TR","os_id":"TR202006670YGZA","country_name":"Türkiye","has_approved_claim":false,"ppe_product_types":null,"ppe_contact_phone":null,"ppe_contact_email":null,"ppe_website":null,"is_closed":null}},{"id":"TR20190982MQZ9R","type":"Feature","geometry":{"type":"Point","coordinates":[28.8201318,41.0126848]},"properties":{"name":"Erse Tekstil","address":"Yenibosna Merkez Mahallesi, Oruc Reis Sokak No: 5, Bahçelievler, Istanbul, 34197","country_code":"TR","os_id":"TR20190982MQZ9R","country_name":"Türkiye","has_approved_claim":false,"ppe_product_types":null,"ppe_contact_phone":null,"ppe_contact_email":null,"ppe_website":null,"is_closed":null}},{"id":"TR2019319KB8AFY","type":"Feature","geometry":{"type":"Point","coordinates":[29.2456761,37.806514]},"properties":{"name":"Erteks kadife tekstil san ve tic ltd sti","address":"Organize Sanayi 2.Bölge, Yasar Öncan Caddesi No:2 Honaz Denizli 20065","country_code":"TR","os_id":"TR2019319KB8AFY","country_name":"Türkiye","has_approved_claim":false,"ppe_product_types":null,"ppe_contact_phone":null,"ppe_contact_email":null,"ppe_website":null,"is_closed":null}},{"id":"BR20190861AT7F9","type":"Feature","geometry":{"type":"Point","coordinates":[-47.0239968,-23.5986725]},"properties":{"name":"Esbelt Lingerie Ltda","address":"Rua Rene Correa 416 , 06730-000, Vargem Grande Paulista, Brazil","country_code":"BR","os_id":"BR20190861AT7F9","country_name":"Brazil","has_approved_claim":false,"ppe_product_types":null,"ppe_contact_phone":null,"ppe_contact_email":null,"ppe_website":null,"is_closed":null}},{"id":"BD20200211YMFH0","type":"Feature","geometry":{"type":"Point","coordinates":[90.5786515,23.7572229]},"properties":{"name":"ESQUIRE SWEATERS LTD.","address":"HOSSAIN AHMED ROAD,OPSITE POLICE LINE,FATULLAH,NARAYANGONG -1400  Naranyanganj","country_code":"BD","os_id":"BD20200211YMFH0","country_name":"Bangladesh","has_approved_claim":false,"ppe_product_types":null,"ppe_contact_phone":null,"ppe_contact_email":null,"ppe_website":null,"is_closed":null}},{"id":"BR20212537DPFZV","type":"Feature","geometry":{"type":"Point","coordinates":[-49.1682986,-28.4354986]},"properties":{"name":"ESTELA CONFECCOES EIRELI","address":"manoel Pereira, 0, Centro, Pedras Grandes","country_code":"BR","os_id":"BR20212537DPFZV","country_name":"Brazil","has_approved_claim":false,"ppe_product_types":null,"ppe_contact_phone":null,"ppe_contact_email":null,"ppe_website":null,"is_closed":null}},{"id":"TR20191723MJYWZ","type":"Feature","geometry":{"type":"Point","coordinates":[28.8224852,41.0586889]},"properties":{"name":"Esvap","address":"Mahmutbey Mah. Hacibosdan Caddesi 6 Istanbul 34217 Bagcilar","country_code":"TR","os_id":"TR20191723MJYWZ","country_name":"Türkiye","has_approved_claim":false,"ppe_product_types":null,"ppe_contact_phone":null,"ppe_contact_email":null,"ppe_website":null,"is_closed":null}},{"id":"TN2020191B0X4C9","type":"Feature","geometry":{"type":"Point","coordinates":[10.8959568,35.632401]},"properties":{"name":"ETC GROUP","address":"Route de Moknine, JEMMEL","country_code":"TN","os_id":"TN2020191B0X4C9","country_name":"Tunisia","has_approved_claim":false,"ppe_product_types":null,"ppe_contact_phone":null,"ppe_contact_email":null,"ppe_website":null,"is_closed":null}},{"id":"MM2023158G6ZS52","type":"Feature","geometry":{"type":"Point","coordinates":[96.0891573743965,16.9889015987682]},"properties":{"name":"ETERNAL EASE (MYANMAR) GARMENT LIMITED","address":"Plot No. 133, Myay Taing Block No. 51, Thar Du Kan Industrial Zone, Shwepyithar Township, Yangon Region, Myanmar","country_code":"MM","os_id":"MM2023158G6ZS52","country_name":"Myanmar","has_approved_claim":false,"ppe_product_types":null,"ppe_contact_phone":null,"ppe_contact_email":null,"ppe_website":null,"is_closed":null}},{"id":"PT20192002H3W9D","type":"Feature","geometry":{"type":"Point","coordinates":[-8.7408575,41.6097811]},"properties":{"name":"ETFOR Empresa Textil S.A","address":"Avenida Margarida Queiros 301 4740-438 Forjares - Esposende","country_code":"PT","os_id":"PT20192002H3W9D","country_name":"Portugal","has_approved_claim":false,"ppe_product_types":null,"ppe_contact_phone":null,"ppe_contact_email":null,"ppe_website":null,"is_closed":null}},{"id":"SI2019143KPJ12E","type":"Feature","geometry":{"type":"Point","coordinates":[14.1077276,46.0515254]},"properties":{"name":"Etiketa Tiskarna D.D.","address":"Industrijska ulica 6   Ziri 4226 Ziri Slovenia","country_code":"SI","os_id":"SI2019143KPJ12E","country_name":"Slovenia","has_approved_claim":false,"ppe_product_types":null,"ppe_contact_phone":null,"ppe_contact_email":null,"ppe_website":null,"is_closed":null}},{"id":"EG201918153PM1N","type":"Feature","geometry":{"type":"Point","coordinates":[29.823811,31.0687431]},"properties":{"name":"ETOL","address":"688 SAIED HASHEM VILLAGE, KM 23 ALEXANDRIA DESERT ROAD, MERGHIM - ALEXANDRIA (ALEXANDRIA)","country_code":"EG","os_id":"EG201918153PM1N","country_name":"Egypt","has_approved_claim":false,"ppe_product_types":null,"ppe_contact_phone":null,"ppe_contact_email":null,"ppe_website":null,"is_closed":null}},{"id":"US2020349YE7DEA","type":"Feature","geometry":{"type":"Point","coordinates":[-119.148399,34.198555]},"properties":{"name":"ETS Express","address":"420 South Lombard Street Oxnard CA 93030","country_code":"US","os_id":"US2020349YE7DEA","country_name":"United States","has_approved_claim":false,"ppe_product_types":null,"ppe_contact_phone":null,"ppe_contact_email":null,"ppe_website":null,"is_closed":null}},{"id":"PL2019083JC2HTY","type":"Feature","geometry":{"type":"Point","coordinates":[16.5603978,51.8609777]},"properties":{"name":"Euro-Comfort Sp. z.o.o.","address":"ul. Spóldzielcza 49, 64-100 Leszno","country_code":"PL","os_id":"PL2019083JC2HTY","country_name":"Poland","has_approved_claim":false,"ppe_product_types":null,"ppe_contact_phone":null,"ppe_contact_email":null,"ppe_website":null,"is_closed":null}},{"id":"BD20222857N2WQC","type":"Feature","geometry":{"type":"Point","coordinates":[90.380132,23.9504063]},"properties":{"name":"Euro Denim & Fashion Ltd. (previously Knit and knitex (Pvt) Ltd.)","address":"1/1, Chaydana, Dagerchala Road. National University, Gazipur - 1704","country_code":"BD","os_id":"BD20222857N2WQC","country_name":"Bangladesh","has_approved_claim":false,"ppe_product_types":null,"ppe_contact_phone":null,"ppe_contact_email":null,"ppe_website":null,"is_closed":null}},{"id":"MA2020311087VST","type":"Feature","geometry":{"type":"Point","coordinates":[-5.8339543,35.7594651]},"properties":{"name":"EUROMALLA SARL.","address":"INDUSTRIAL ZONE OF ALMAJD, LOTS 831, TANGIER, TANGIER, TANGIER, 4616","country_code":"MA","os_id":"MA2020311087VST","country_name":"Morocco","has_approved_claim":false,"ppe_product_types":null,"ppe_contact_phone":null,"ppe_contact_email":null,"ppe_website":null,"is_closed":null}},{"id":"PT2019085M3KMNG","type":"Feature","geometry":{"type":"Point","coordinates":[-7.9980002,40.4347784]},"properties":{"name":"Euroralex Confeccoes S.A.","address":"Parque Industrial De Sao Domingos, Lote 3 -Apartado 4 3430-951,Carregal Do Sal, Portuga Carregal Do Sal","country_code":"PT","os_id":"PT2019085M3KMNG","country_name":"Portugal","has_approved_claim":false,"ppe_product_types":null,"ppe_contact_phone":null,"ppe_contact_email":null,"ppe_website":null,"is_closed":null}},{"id":"RS202207496SQ7W","type":"Feature","geometry":{"type":"Point","coordinates":[20.6327695,43.766883]},"properties":{"name":"Eurotay d.o.o.","address":"Adranska 113, Adrani, Serbia, 36000","country_code":"RS","os_id":"RS202207496SQ7W","country_name":"Serbia","has_approved_claim":false,"ppe_product_types":null,"ppe_contact_phone":null,"ppe_contact_email":null,"ppe_website":null,"is_closed":null}},{"id":"IN2019083M0T6TW","type":"Feature","geometry":{"type":"Point","coordinates":[75.9139623,30.8713921]},"properties":{"name":"Eveline International","address":"G.T.Road Industrial Area \"C\" Dhandari Kalan Ludhiana Punjab","country_code":"IN","os_id":"IN2019083M0T6TW","country_name":"India","has_approved_claim":false,"ppe_product_types":null,"ppe_contact_phone":null,"ppe_contact_email":null,"ppe_website":null,"is_closed":null}},{"id":"BR2021253ZVVQBT","type":"Feature","geometry":{"type":"Point","coordinates":[-49.2565909,-25.4768411]},"properties":{"name":"Everest Optical Distribuidora de Produtos Óticos Ltda","address":"Professor João Soares Barcelos, 288, Hauer, Curitiba","country_code":"BR","os_id":"BR2021253ZVVQBT","country_name":"Brazil","has_approved_claim":false,"ppe_product_types":null,"ppe_contact_phone":null,"ppe_contact_email":null,"ppe_website":null,"is_closed":null}},{"id":"VN2019143YQ6M3A","type":"Feature","geometry":{"type":"Point","coordinates":[106.754437,10.972938]},"properties":{"name":"Ever Tech Plastic Vietnam Co., Ltd","address":"My Hiep Ward, Thai Hoa Town, Tan Uyen District Binh Duong Province  Binh Duong Vietnam","country_code":"VN","os_id":"VN2019143YQ6M3A","country_name":"Vietnam","has_approved_claim":false,"ppe_product_types":null,"ppe_contact_phone":null,"ppe_contact_email":null,"ppe_website":null,"is_closed":null}},{"id":"BR2019086WBJWNR","type":"Feature","geometry":{"type":"Point","coordinates":[-45.9079117,-21.684332]},"properties":{"name":"F-2 Industria E Comercio De Confeccoes Em Geral Ltda","address":"Rua Mozart Da Silva Pinto 22, 3775000, Machado, Brazil","country_code":"BR","os_id":"BR2019086WBJWNR","country_name":"Brazil","has_approved_claim":false,"ppe_product_types":null,"ppe_contact_phone":null,"ppe_contact_email":null,"ppe_website":null,"is_closed":null}},{"id":"BR2021253MKR27B","type":"Feature","geometry":{"type":"Point","coordinates":[-49.2,-28.75]},"properties":{"name":"FACCAO ANA LTDA","address":"São Miguel, 0, Olho D`água, Jaguaruna","country_code":"BR","os_id":"BR2021253MKR27B","country_name":"Brazil","has_approved_claim":false,"ppe_product_types":null,"ppe_contact_phone":null,"ppe_contact_email":null,"ppe_website":null,"is_closed":null}},{"id":"BR2021253E7MXKW","type":"Feature","geometry":{"type":"Point","coordinates":[-49.3798143,-28.6981583]},"properties":{"name":"FACCAO DE TECIDOS UNIVERSAL LTDA","address":"Washington Luiz, 621, São Luiz, Criciuma","country_code":"BR","os_id":"BR2021253E7MXKW","country_name":"Brazil","has_approved_claim":false,"ppe_product_types":null,"ppe_contact_phone":null,"ppe_contact_email":null,"ppe_website":null,"is_closed":null}},{"id":"BR2021260D3P43E","type":"Feature","geometry":{"type":"Point","coordinates":[-49.3791753,-26.9616324]},"properties":{"name":"FACCAO DOM BOSCO EIRELI","address":"R DOM BOSCO, 705 - Ascurra, SC","country_code":"BR","os_id":"BR2021260D3P43E","country_name":"Brazil","has_approved_claim":false,"ppe_product_types":null,"ppe_contact_phone":null,"ppe_contact_email":null,"ppe_website":null,"is_closed":null}},{"id":"BR2021253H99QEB","type":"Feature","geometry":{"type":"Point","coordinates":[-49.5213394,-27.1054823]},"properties":{"name":"Facção e Confecção JS Ltda.","address":"R JULIO SCHNEIDER, 303, SERRA SAO MIGUEL, Ibirama","country_code":"BR","os_id":"BR2021253H99QEB","country_name":"Brazil","has_approved_claim":false,"ppe_product_types":null,"ppe_contact_phone":null,"ppe_contact_email":null,"ppe_website":null,"is_closed":null}},{"id":"BR2021253W4AGTQ","type":"Feature","geometry":{"type":"Point","coordinates":[-49.7162671,-26.9869036]},"properties":{"name":"FACCAO LS LTDA","address":"Andreas Kunnas, 1002, Centro, Dona Emma","country_code":"BR","os_id":"BR2021253W4AGTQ","country_name":"Brazil","has_approved_claim":false,"ppe_product_types":null,"ppe_contact_phone":null,"ppe_contact_email":null,"ppe_website":null,"is_closed":null}},{"id":"BR2020190CE4THB","type":"Feature","geometry":{"type":"Point","coordinates":[-49.3824881,-27.0380991]},"properties":{"name":"Facção Queli & Cia Ltda","address":"R. Recife , N.669Apiúna89135000","country_code":"BR","os_id":"BR2020190CE4THB","country_name":"Brazil","has_approved_claim":false,"ppe_product_types":null,"ppe_contact_phone":null,"ppe_contact_email":null,"ppe_website":null,"is_closed":null}},{"id":"BR20212537T9NFH","type":"Feature","geometry":{"type":"Point","coordinates":[-49.0924157,-26.8746417]},"properties":{"name":"FACCAO TONTINI LTDA","address":"R TRINTA DE AGOSTO, 336, SALTO NORTE, Blumenau","country_code":"BR","os_id":"BR20212537T9NFH","country_name":"Brazil","has_approved_claim":false,"ppe_product_types":null,"ppe_contact_phone":null,"ppe_contact_email":null,"ppe_website":null,"is_closed":null}},{"id":"IT2020191ZRFZP7","type":"Feature","geometry":{"type":"Point","coordinates":[10.724925,43.844838]},"properties":{"name":"Facopel Produzione s.r.l.","address":"Via Della Lama 15/A, Chiesina Uzzanese","country_code":"IT","os_id":"IT2020191ZRFZP7","country_name":"Italy","has_approved_claim":false,"ppe_product_types":null,"ppe_contact_phone":null,"ppe_contact_email":null,"ppe_website":null,"is_closed":null}},{"id":"MX2019087XG165S","type":"Feature","geometry":{"type":"Point","coordinates":[-116.6055068,31.8794911]},"properties":{"name":"Factory 1 S.A. de C.V.","address":"ALISOS NO. 113 RESIDENCIAL LOMAS","country_code":"MX","os_id":"MX2019087XG165S","country_name":"Mexico","has_approved_claim":false,"ppe_product_types":null,"ppe_contact_phone":null,"ppe_contact_email":null,"ppe_website":null,"is_closed":null}},{"id":"BD2021138DSTBHK","type":"Feature","geometry":{"type":"Point","coordinates":[90.4772186,23.6236868]},"properties":{"name":"Fair Apparels Ltd.","address":"Plot A-28/29, Block A, BSCIC Industrial Estate, Fatullah, Enayetnagar, Narayanganj-1420","country_code":"BD","os_id":"BD2021138DSTBHK","country_name":"Bangladesh","has_approved_claim":false,"ppe_product_types":null,"ppe_contact_phone":null,"ppe_contact_email":null,"ppe_website":null,"is_closed":null}},{"id":"PK202021772W6F3","type":"Feature","geometry":{"type":"Point","coordinates":[73.9850243,31.7166617]},"properties":{"name":"Faisal Spinning Mills Ltd.","address":"1.7 KM, Warbuton, Road, Wattwan, Sheikhupura, Punjab, 39180","country_code":"PK","os_id":"PK202021772W6F3","country_name":"Pakistan","has_approved_claim":false,"ppe_product_types":null,"ppe_contact_phone":null,"ppe_contact_email":null,"ppe_website":null,"is_closed":null}},{"id":"BD202002152VVV5","type":"Feature","geometry":{"type":"Point","coordinates":[91.845855,24.7541837]},"properties":{"name":"Fakir Garments Ltd.","address":"EAST-CHANDMARI, KHA-PUR, FATULLAH, NARAYANGANJ  Naranyanganj","country_code":"BD","os_id":"BD202002152VVV5","country_name":"Bangladesh","has_approved_claim":false,"ppe_product_types":null,"ppe_contact_phone":null,"ppe_contact_email":null,"ppe_website":null,"is_closed":null}},{"id":"BD20192482GKMQG","type":"Feature","geometry":{"type":"Point","coordinates":[90.35159619999999,23.7640006]},"properties":{"name":"Falcon International Knit Composite","address":"Plot - 2/1 , Road - 7, Block - A, Nobodoy Housing Society, Adabor, Mohammadpur, Dhaka - 1207","country_code":"BD","os_id":"BD20192482GKMQG","country_name":"Bangladesh","has_approved_claim":false,"ppe_product_types":null,"ppe_contact_phone":null,"ppe_contact_email":null,"ppe_website":null,"is_closed":null}},{"id":"BR2019086Q0W3KQ","type":"Feature","geometry":{"type":"Point","coordinates":[-46.6387679,-23.5280591]},"properties":{"name":"Faraos Caseados E Botoes Ltda Me","address":"R. Silva Pinto, 404, 1122000, So Paulo, Brazil","country_code":"BR","os_id":"BR2019086Q0W3KQ","country_name":"Brazil","has_approved_claim":false,"ppe_product_types":null,"ppe_contact_phone":null,"ppe_contact_email":null,"ppe_website":null,"is_closed":null}},{"id":"VN2020114GBNA6E","type":"Feature","geometry":{"type":"Point","coordinates":[106.705813,11.156187]},"properties":{"name":"FAR EASTERN APPAREL (HOLDING) LIMITED VIETNAM","address":"ST. 32, 12A VSIP II-A, BINH DUONG, BÌNH DUONG, 820000, VIETNAM","country_code":"VN","os_id":"VN2020114GBNA6E","country_name":"Vietnam","has_approved_claim":false,"ppe_product_types":null,"ppe_contact_phone":null,"ppe_contact_email":null,"ppe_website":null,"is_closed":null}},{"id":"VN2022073Y1DVZT","type":"Feature","geometry":{"type":"Point","coordinates":[106.6432128,11.227316]},"properties":{"name":"FAR EASTERN POLYTEX (VIETNAM) LTD","address":"Land Lot B 5B CN Road DC, Bau Bang District, Bình Duong, 75000","country_code":"VN","os_id":"VN2022073Y1DVZT","country_name":"Vietnam","has_approved_claim":false,"ppe_product_types":null,"ppe_contact_phone":null,"ppe_contact_email":null,"ppe_website":null,"is_closed":null}},{"id":"BD2020191F5ZRBB","type":"Feature","geometry":{"type":"Point","coordinates":[91.365613,24.1296877]},"properties":{"name":"Far East Spinning Industries Ltd","address":"Uttor Surma, Teliapara, Madhabpur","country_code":"BD","os_id":"BD2020191F5ZRBB","country_name":"Bangladesh","has_approved_claim":false,"ppe_product_types":null,"ppe_contact_phone":null,"ppe_contact_email":null,"ppe_website":null,"is_closed":null}},{"id":"IN2019098P6FWE9","type":"Feature","geometry":{"type":"Point","coordinates":[88.3761225,22.545598]},"properties":{"name":"Farinni Leather PVT","address":"7A & B Raicharan Pal Lane, Abinash Choudhury Lane, Kolkata, West Bengal, 700 046","country_code":"IN","os_id":"IN2019098P6FWE9","country_name":"India","has_approved_claim":false,"ppe_product_types":null,"ppe_contact_phone":null,"ppe_contact_email":null,"ppe_website":null,"is_closed":null}},{"id":"BR2019086ZXVWMN","type":"Feature","geometry":{"type":"Point","coordinates":[-49.7115614,-27.0675686]},"properties":{"name":"Far Lucky Industria De Confeccoes Ltda - Me","address":"R.  Traugott Muller, 1372, 89150000, Presidente GetЈlio, Brazil","country_code":"BR","os_id":"BR2019086ZXVWMN","country_name":"Brazil","has_approved_claim":false,"ppe_product_types":null,"ppe_contact_phone":null,"ppe_contact_email":null,"ppe_website":null,"is_closed":null}},{"id":"BD2020066TN89PC","type":"Feature","geometry":{"type":"Point","coordinates":[90.4266584,24.2443989]},"properties":{"name":"Fashion Asia Ltd. (New Unit)","address":"Tepirbari, Sreepur, Gazipur Gazipur 1743 Dhaka","country_code":"BD","os_id":"BD2020066TN89PC","country_name":"Bangladesh","has_approved_claim":false,"ppe_product_types":null,"ppe_contact_phone":null,"ppe_contact_email":null,"ppe_website":null,"is_closed":null}},{"id":"BD2019248KHRD6F","type":"Feature","geometry":{"type":"Point","coordinates":[90.3214135,23.9124301]},"properties":{"name":"Fashion.com Ltd.","address":"Durgapur, Boro Rangamatia, Zirabo, Ashulia, Savar, Dhaka - 1341","country_code":"BD","os_id":"BD2019248KHRD6F","country_name":"Bangladesh","has_approved_claim":false,"ppe_product_types":null,"ppe_contact_phone":null,"ppe_contact_email":null,"ppe_website":null,"is_closed":null}},{"id":"GB2022264SHQK4K","type":"Feature","geometry":{"type":"Point","coordinates":[-0.0911072,51.57635879999999]},"properties":{"name":"Fashion-Enter Ltd - The Factory","address":"Units 4,13 & 14 Crusader Ind Est,  167 Hermitage Road, Haringey,London, N4 1LZ","country_code":"GB","os_id":"GB2022264SHQK4K","country_name":"United Kingdom","has_approved_claim":false,"ppe_product_types":["Scrub suits"],"ppe_contact_phone":"7502249234","ppe_contact_email":"caroline@fashion-enter.com","ppe_website":"https://www.fashion-enter.com/","is_closed":null}},{"id":"PK2020281RMCF5P","type":"Feature","geometry":{"type":"Point","coordinates":[66.9869521,24.8927648]},"properties":{"name":"Fashion Knit Industries","address":"Plot C-30 S.I.T.E., Karachi, Sindh","country_code":"PK","os_id":"PK2020281RMCF5P","country_name":"Pakistan","has_approved_claim":false,"ppe_product_types":null,"ppe_contact_phone":null,"ppe_contact_email":null,"ppe_website":null,"is_closed":null}},{"id":"BD2019248P06Q9W","type":"Feature","geometry":{"type":"Point","coordinates":[90.4195876,24.1701145]},"properties":{"name":"Fashions Support Ltd.","address":"(1st Floor), Baniar Chala (Member Bari), Joydebpur, Gazipur-1740","country_code":"BD","os_id":"BD2019248P06Q9W","country_name":"Bangladesh","has_approved_claim":false,"ppe_product_types":null,"ppe_contact_phone":null,"ppe_contact_email":null,"ppe_website":null,"is_closed":null}},{"id":"MA2020351TDBQX1","type":"Feature","geometry":{"type":"Point","coordinates":[-5.7902359,35.7682687]},"properties":{"name":"FASORTEX","address":"ROUTE DES ABATTOIRS QUARTIER CHARF TANGER 90000","country_code":"MA","os_id":"MA2020351TDBQX1","country_name":"Morocco","has_approved_claim":false,"ppe_product_types":null,"ppe_contact_phone":null,"ppe_contact_email":null,"ppe_website":null,"is_closed":null}},{"id":"BD2020221JEZ49V","type":"Feature","geometry":{"type":"Point","coordinates":[90.4997973,23.6642978]},"properties":{"name":"Fatullah Apparels","address":"Fatullah Complex (2nd Floor), Plot B-68/1, Wapda Road, Jalkuri, Siddhirganj, Narayanganj-1430","country_code":"BD","os_id":"BD2020221JEZ49V","country_name":"Bangladesh","has_approved_claim":false,"ppe_product_types":null,"ppe_contact_phone":null,"ppe_contact_email":null,"ppe_website":null,"is_closed":null}},{"id":"PT2019259FBHXCM","type":"Feature","geometry":{"type":"Point","coordinates":[-8.3339376,41.374029]},"properties":{"name":"FCA.TECIDOS DE VILARINHO,LDA.","address":"Rua da Fundição, 163 - Vilarinho - 4795-792 - Santo Tirso","country_code":"PT","os_id":"PT2019259FBHXCM","country_name":"Portugal","has_approved_claim":false,"ppe_product_types":null,"ppe_contact_phone":null,"ppe_contact_email":null,"ppe_website":null,"is_closed":null}}]