[{"id":"BD20192489ATMAB","type":"Feature","geometry":{"type":"Point","coordinates":[90.1545106,23.9180343]},"properties":{"name":"Graphics Textiles Ltd.","address":"Dhaka - Aricha Highway, Sreerampur, Sutipara, Kalampur, Dhamrai, Dhaka - 1351","country_code":"BD","os_id":"BD20192489ATMAB","country_name":"Bangladesh","has_approved_claim":false,"ppe_product_types":null,"ppe_contact_phone":null,"ppe_contact_email":null,"ppe_website":null,"is_closed":null}},{"id":"CN20191813W737Q","type":"Feature","geometry":{"type":"Point","coordinates":[120.266202,29.957316]},"properties":{"name":"Hangzhou Chenggong Shoes Co. Ltd","address":"Xinjiangqiao, Jingyou Village Puyang Town, Xiaoshan District Hangzhou City Zhejiang","country_code":"CN","os_id":"CN20191813W737Q","country_name":"China","has_approved_claim":false,"ppe_product_types":null,"ppe_contact_phone":null,"ppe_contact_email":null,"ppe_website":null,"is_closed":null}},{"id":"CN2019098PMBSB7","type":"Feature","geometry":{"type":"Point","coordinates":[120.2997664,30.3998755]},"properties":{"name":"Hangzhou Jiefeng Garments Co. Ltd","address":"No.1, Dongxi Road, Nanyuan Street, Liansheng Village, Yuhang District, Hangzhou, Zhejiang, 311100","country_code":"CN","os_id":"CN2019098PMBSB7","country_name":"China","has_approved_claim":false,"ppe_product_types":null,"ppe_contact_phone":null,"ppe_contact_email":null,"ppe_website":null,"is_closed":null}},{"id":"VN2019087GPJKP0","type":"Feature","geometry":{"type":"Point","coordinates":[106.0111203,21.3106777]},"properties":{"name":"Ha Phong Export Garment Joint Stock Company","address":"Doan Bai commune - Hiep Hoa district - Bac Giang province","country_code":"VN","os_id":"VN2019087GPJKP0","country_name":"Vietnam","has_approved_claim":false,"ppe_product_types":null,"ppe_contact_phone":null,"ppe_contact_email":null,"ppe_website":null,"is_closed":null}},{"id":"CN2022299JVF8VA","type":"Feature","geometry":{"type":"Point","coordinates":[112.7851258,34.9028554]},"properties":{"name":"Henan Prosper Skins & Leather Enterprise Co., Ltd","address":"No. 5, West Industrial Zone, Meng Zhou (Shi), JiaoZuo City, Henan 454750","country_code":"CN","os_id":"CN2022299JVF8VA","country_name":"China","has_approved_claim":false,"ppe_product_types":null,"ppe_contact_phone":null,"ppe_contact_email":null,"ppe_website":null,"is_closed":null}},{"id":"CN2019310GZ6VK4","type":"Feature","geometry":{"type":"Point","coordinates":[116.83349,32.631379]},"properties":{"name":"Huai'nan Shine Source Shoes Co., Ltd.","address":"No. 222 Xingye Road, Industrial Cluster Zone, Bagongshan District, Huai'Nan, An'Hui Province","country_code":"CN","os_id":"CN2019310GZ6VK4","country_name":"China","has_approved_claim":false,"ppe_product_types":null,"ppe_contact_phone":null,"ppe_contact_email":null,"ppe_website":null,"is_closed":null}},{"id":"CN2020053AA9GCP","type":"Feature","geometry":{"type":"Point","coordinates":[118.109695,24.573324]},"properties":{"name":"HUAMAO (XIAMEN) SPECIAL MATERIAL CO.,LTD","address":"No. 28 Xingbei Rd.\nJimei District\nXiamen Xiamen Fujian","country_code":"CN","os_id":"CN2020053AA9GCP","country_name":"China","has_approved_claim":false,"ppe_product_types":null,"ppe_contact_phone":null,"ppe_contact_email":null,"ppe_website":null,"is_closed":null}},{"id":"CN2019098C10N0G","type":"Feature","geometry":{"type":"Point","coordinates":[114.418288,23.1710919]},"properties":{"name":"HUIZHOU HIGHLINK GARMENT FACTORY","address":"No. 43 Jinfu Road, Xaio Jon Kou, Huizhou City, Guangdong Province, China","country_code":"CN","os_id":"CN2019098C10N0G","country_name":"China","has_approved_claim":false,"ppe_product_types":null,"ppe_contact_phone":null,"ppe_contact_email":null,"ppe_website":null,"is_closed":null}},{"id":"MA20212713KHXHJ","type":"Feature","geometry":{"type":"Point","coordinates":[-4.9844501,34.0274085]},"properties":{"name":"Ibtitex","address":"Lot 1 Ibn El Haytam  Street Sidi Brahim  Industrial Zone  Fez  30070","country_code":"MA","os_id":"MA20212713KHXHJ","country_name":"Morocco","has_approved_claim":false,"ppe_product_types":null,"ppe_contact_phone":null,"ppe_contact_email":null,"ppe_website":null,"is_closed":null}},{"id":"SV201910841JPDR","type":"Feature","geometry":{"type":"Point","coordinates":[-89.1362101,13.6921267]},"properties":{"name":"Impression Apparel Group S.A. de C.V.","address":"Blvd. Del Ejercito Km 8 1/2 Y Calle Cooperativa Algodonera, Edificio 1, Soyapango   San Salvador   El Salvador","country_code":"SV","os_id":"SV201910841JPDR","country_name":"El Salvador","has_approved_claim":false,"ppe_product_types":null,"ppe_contact_phone":null,"ppe_contact_email":null,"ppe_website":null,"is_closed":null}},{"id":"BR202005745G6JN","type":"Feature","geometry":{"type":"Point","coordinates":[-49.236979,-26.8755401]},"properties":{"name":"IND'ARTE ESTAMPARIA LTDA","address":"ROD BR-470, 479 - BENEDITO, Indaial, Santa Catarina, 89080-001","country_code":"BR","os_id":"BR202005745G6JN","country_name":"Brazil","has_approved_claim":false,"ppe_product_types":null,"ppe_contact_phone":null,"ppe_contact_email":null,"ppe_website":null,"is_closed":null}},{"id":"PK2019087T6RD4Z","type":"Feature","geometry":{"type":"Point","coordinates":[67.4004821,24.8596453]},"properties":{"name":"Indigo Textile Pvt Ltd","address":"Naclass, 306, Deh Boreji Bin Qasim KARACHI","country_code":"PK","os_id":"PK2019087T6RD4Z","country_name":"Pakistan","has_approved_claim":false,"ppe_product_types":null,"ppe_contact_phone":null,"ppe_contact_email":null,"ppe_website":null,"is_closed":null}},{"id":"IT2019158X3HTRT","type":"Feature","geometry":{"type":"Point","coordinates":[12.3223542,46.1452841]},"properties":{"name":"INTERSOCKS SRL","address":"Via dell’Industria, 28, Loc. Paludi - Z.I., Alpago/BL, Veneto 32016","country_code":"IT","os_id":"IT2019158X3HTRT","country_name":"Italy","has_approved_claim":false,"ppe_product_types":null,"ppe_contact_phone":null,"ppe_contact_email":null,"ppe_website":null,"is_closed":null}},{"id":"BD2021043BA52HZ","type":"Feature","geometry":{"type":"Point","coordinates":[90.3218558,23.9960813]},"properties":{"name":"ISLAM GARMENTS LIMITED (UNIT-2)","address":"ZARUN, KONABARI KONABARI Gazipur","country_code":"BD","os_id":"BD2021043BA52HZ","country_name":"Bangladesh","has_approved_claim":false,"ppe_product_types":null,"ppe_contact_phone":null,"ppe_contact_email":null,"ppe_website":null,"is_closed":null}},{"id":"IN2020066EFESFT","type":"Feature","geometry":{"type":"Point","coordinates":[77.4845372,27.7655791]},"properties":{"name":"Jain Cord Industries Pvt Ltd","address":"Village Dautana, Chandori Road, Tehsil Chatta, 281401, Mathura, Uttar Pradesh","country_code":"IN","os_id":"IN2020066EFESFT","country_name":"India","has_approved_claim":false,"ppe_product_types":null,"ppe_contact_phone":null,"ppe_contact_email":null,"ppe_website":null,"is_closed":null}},{"id":"CN2020191XSGSKJ","type":"Feature","geometry":{"type":"Point","coordinates":[120.676869,31.538231]},"properties":{"name":"Jiangsu Changxin Weaving Co.,LTD","address":"INDUSTRIAL PARK, XINZHUANG CHANGSHU, JIANGSU, CHINA, Jintan","country_code":"CN","os_id":"CN2020191XSGSKJ","country_name":"China","has_approved_claim":false,"ppe_product_types":null,"ppe_contact_phone":null,"ppe_contact_email":null,"ppe_website":null,"is_closed":null}},{"id":"CN2020043G5XMAC","type":"Feature","geometry":{"type":"Point","coordinates":[120.5572027,31.8751495]},"properties":{"name":"Jiangsu Guotai Shengtian Garment Co., Ltd.","address":"Building 4&5 North West Crossing Of Gangcheng Avenue And 2Nd North Ring Road, 215600, Zhangjiagang, Jiangsu, China","country_code":"CN","os_id":"CN2020043G5XMAC","country_name":"China","has_approved_claim":false,"ppe_product_types":null,"ppe_contact_phone":null,"ppe_contact_email":null,"ppe_website":null,"is_closed":null}},{"id":"CN20191729M4RWW","type":"Feature","geometry":{"type":"Point","coordinates":[120.7633767,30.7559071]},"properties":{"name":"Jiaxing Senchuang Fashion Co., Ltd","address":"No.18, Weichuang Rd., Qixing Town, Nanhu District \nJiaxing, Zhejiang, P.R. China, 314002","country_code":"CN","os_id":"CN20191729M4RWW","country_name":"China","has_approved_claim":false,"ppe_product_types":null,"ppe_contact_phone":null,"ppe_contact_email":null,"ppe_website":null,"is_closed":null}},{"id":"GB2019181J0Y2F0","type":"Feature","geometry":{"type":"Point","coordinates":[-1.72473,53.6854714]},"properties":{"name":"John Cotton Group Ltd","address":"Nun Brook Mills Mirfield West Yorkshire","country_code":"GB","os_id":"GB2019181J0Y2F0","country_name":"United Kingdom","has_approved_claim":false,"ppe_product_types":null,"ppe_contact_phone":null,"ppe_contact_email":null,"ppe_website":null,"is_closed":null}},{"id":"BD2019098NG536P","type":"Feature","geometry":{"type":"Point","coordinates":[91.8555628,22.2540408]},"properties":{"name":"Karnaphuli Shoes Industries Limited (Garment Unit)","address":"Korean Export Processing Zone,Anwara, ,Chittagong,Chittagong,Bangladesh","country_code":"BD","os_id":"BD2019098NG536P","country_name":"Bangladesh","has_approved_claim":false,"ppe_product_types":null,"ppe_contact_phone":null,"ppe_contact_email":null,"ppe_website":null,"is_closed":null}},{"id":"BD201929729195Y","type":"Feature","geometry":{"type":"Point","coordinates":[91.8259688,22.3637747]},"properties":{"name":"KDS APPARELS LTD","address":"251-252, NASIRABAD I/A, BAIZID BOSTAMI ROAD, CHITTAGONG","country_code":"BD","os_id":"BD201929729195Y","country_name":"Bangladesh","has_approved_claim":false,"ppe_product_types":null,"ppe_contact_phone":null,"ppe_contact_email":null,"ppe_website":null,"is_closed":null}},{"id":"BD2020308NEEYY2","type":"Feature","geometry":{"type":"Point","coordinates":[91.7885127,22.2717717]},"properties":{"name":"KenPark Bangladesh Apparel  (Pvt.) Limited (K5)","address":"Plot No: 14-23, Sector No: 02, KEPZ, Chittagong, Bangladesh","country_code":"BD","os_id":"BD2020308NEEYY2","country_name":"Bangladesh","has_approved_claim":false,"ppe_product_types":null,"ppe_contact_phone":null,"ppe_contact_email":null,"ppe_website":null,"is_closed":null}},{"id":"BD2019133VHBW0C","type":"Feature","geometry":{"type":"Point","coordinates":[91.7914967,22.2603593]},"properties":{"name":"Kenpark Bangladesh Apparel Pvt. Ltd. (Unit 2)","address":"Plot # 69 - 85 Karnaphuli Export Processing Zone North Patenga, Chittagong, Chittagong, Bangladesh","country_code":"BD","os_id":"BD2019133VHBW0C","country_name":"Bangladesh","has_approved_claim":false,"ppe_product_types":null,"ppe_contact_phone":null,"ppe_contact_email":null,"ppe_website":null,"is_closed":null}},{"id":"BD20200219NAPHW","type":"Feature","geometry":{"type":"Point","coordinates":[90.3831669,23.9897312]},"properties":{"name":"Kimberly Design","address":"214/3,Technogpara,Joydebpur,Gazipur. 1702 Gazipur","country_code":"BD","os_id":"BD20200219NAPHW","country_name":"Bangladesh","has_approved_claim":false,"ppe_product_types":null,"ppe_contact_phone":null,"ppe_contact_email":null,"ppe_website":null,"is_closed":null}},{"id":"TR2019083RGE4XM","type":"Feature","geometry":{"type":"Point","coordinates":[29.501683,40.0915147]},"properties":{"name":"Kucukcalik","address":"Organize San Bol 1 Cadde Sonu Inegöl Bursa","country_code":"TR","os_id":"TR2019083RGE4XM","country_name":"Türkiye","has_approved_claim":false,"ppe_product_types":null,"ppe_contact_phone":null,"ppe_contact_email":null,"ppe_website":null,"is_closed":null}},{"id":"BR2019086W1PPQE","type":"Feature","geometry":{"type":"Point","coordinates":[-48.9812238,-26.9190301]},"properties":{"name":"Lave Bem Lavanderia E Tinturaria Ltda Epp","address":"R. Giovane Moser, 95, 89110000, Gaspar, Brazil","country_code":"BR","os_id":"BR2019086W1PPQE","country_name":"Brazil","has_approved_claim":false,"ppe_product_types":null,"ppe_contact_phone":null,"ppe_contact_email":null,"ppe_website":null,"is_closed":null}},{"id":"BD202005362ZFCM","type":"Feature","geometry":{"type":"Point","coordinates":[90.2695922,24.129554]},"properties":{"name":"Libas Textiles Limited","address":"Nishchintapur, Mouchak, Kaliakoir, Gazipur. Gazipur Dhaka","country_code":"BD","os_id":"BD202005362ZFCM","country_name":"Bangladesh","has_approved_claim":false,"ppe_product_types":["Masks"],"ppe_contact_phone":"8801700761","ppe_contact_email":"info@libastex.com","ppe_website":"https://www.libastex.com","is_closed":null}},{"id":"BD2019083CVF7SK","type":"Feature","geometry":{"type":"Point","coordinates":[90.2688404,24.0383548]},"properties":{"name":"Lida Textile & Dyeing Ltd.","address":"Holding No-100/2, Block-B, Purbo Chandora, Ward No. 8, Shofipur, Kaliakoir","country_code":"BD","os_id":"BD2019083CVF7SK","country_name":"Bangladesh","has_approved_claim":false,"ppe_product_types":null,"ppe_contact_phone":null,"ppe_contact_email":null,"ppe_website":null,"is_closed":null}},{"id":"CN20190924DARQJ","type":"Feature","geometry":{"type":"Point","coordinates":[118.552365,24.781681]},"properties":{"name":"LRX Costume Weaving Co Ltd","address":"52 Gaoxing Road Gaohu Industrial District Yinglin Town Jinjiang City Fujian Province","country_code":"CN","os_id":"CN20190924DARQJ","country_name":"China","has_approved_claim":false,"ppe_product_types":null,"ppe_contact_phone":null,"ppe_contact_email":null,"ppe_website":null,"is_closed":null}},{"id":"PK2022014X67FGF","type":"Feature","geometry":{"type":"Point","coordinates":[67.085938,24.933563]},"properties":{"name":"LUCKY KNITS (PRIVATE) LIMITED","address":"L-A 2/B, BLOCK 21, FEDERAL B AREA, KARACHI SINDH 75950","country_code":"PK","os_id":"PK2022014X67FGF","country_name":"Pakistan","has_approved_claim":false,"ppe_product_types":null,"ppe_contact_phone":null,"ppe_contact_email":null,"ppe_website":null,"is_closed":null}},{"id":"CN2019083X2QK6Q","type":"Feature","geometry":{"type":"Point","coordinates":[117.987655,36.646586]},"properties":{"name":"Lu Thai Textile Co.,Ltd","address":"No.81, East Songling Road, Zichuan Zibo Shandong, China","country_code":"CN","os_id":"CN2019083X2QK6Q","country_name":"China","has_approved_claim":false,"ppe_product_types":null,"ppe_contact_phone":null,"ppe_contact_email":null,"ppe_website":null,"is_closed":null}},{"id":"IN20200725YAYGZ","type":"Feature","geometry":{"type":"Point","coordinates":[79.9452748,12.9624975]},"properties":{"name":"Magnum Clothing Pvt. Ltd. (Kandigai)","address":"No. 456/3B, 3C, 4A, 4B, 457/2C2, Walajah Rd, Kandigai, Oragadam, Sriperumbudur TK, Kancheepuram Dist., 603109 Oragadam","country_code":"IN","os_id":"IN20200725YAYGZ","country_name":"India","has_approved_claim":false,"ppe_product_types":null,"ppe_contact_phone":null,"ppe_contact_email":null,"ppe_website":null,"is_closed":null}},{"id":"BD2019248HGZA4E","type":"Feature","geometry":{"type":"Point","coordinates":[90.35721730000002,23.9019195]},"properties":{"name":"Majumder Garments Ltd.","address":"Plot 113/1, Majumder Center, Vadam Mudafa Road, Mudafa Paschimpara, Tongi, Gazipur-1711","country_code":"BD","os_id":"BD2019248HGZA4E","country_name":"Bangladesh","has_approved_claim":false,"ppe_product_types":null,"ppe_contact_phone":null,"ppe_contact_email":null,"ppe_website":null,"is_closed":null}},{"id":"PT20221541885DQ","type":"Feature","geometry":{"type":"Point","coordinates":[-8.6338593,41.5294252]},"properties":{"name":"Malhas Sonix, S.A.","address":"Rua Filipa Borges, 1163 a 1245 - Apart. 216, 4754-909 Barcelos","country_code":"PT","os_id":"PT20221541885DQ","country_name":"Portugal","has_approved_claim":true,"ppe_product_types":null,"ppe_contact_phone":null,"ppe_contact_email":null,"ppe_website":null,"is_closed":null}},{"id":"TR2020191DTJ8E4","type":"Feature","geometry":{"type":"Point","coordinates":[28.9534674,40.231472]},"properties":{"name":"MARSALA DOKUMA BOYA SAN. VE TIC A.S","address":"ISIKTEPE ORGANIZE SAN BOL. TURUNCU CD 2.SK NO:3, BURSA","country_code":"TR","os_id":"TR2020191DTJ8E4","country_name":"Türkiye","has_approved_claim":false,"ppe_product_types":null,"ppe_contact_phone":null,"ppe_contact_email":null,"ppe_website":null,"is_closed":null}},{"id":"BD2020164WM123B","type":"Feature","geometry":{"type":"Point","coordinates":[90.3761685,23.9146183]},"properties":{"name":"Masco Printing & Embroidery Ltd","address":"318/A Khapara Road, Sataish, Tongi, Gazipur.","country_code":"BD","os_id":"BD2020164WM123B","country_name":"Bangladesh","has_approved_claim":false,"ppe_product_types":null,"ppe_contact_phone":null,"ppe_contact_email":null,"ppe_website":null,"is_closed":null}},{"id":"BD20202534V2CZ0","type":"Feature","geometry":{"type":"Point","coordinates":[90.3224176,23.9122924]},"properties":{"name":"Mascot Fashions Ltd. & Mascot Knits Ltd.","address":"146, Dewan Idris Road Zirabo, Ashulia, Savar Ashulia, Savar Dhaka 1341","country_code":"BD","os_id":"BD20202534V2CZ0","country_name":"Bangladesh","has_approved_claim":false,"ppe_product_types":null,"ppe_contact_phone":null,"ppe_contact_email":null,"ppe_website":null,"is_closed":null}},{"id":"IN2021263GAKYRA","type":"Feature","geometry":{"type":"Point","coordinates":[77.0027056,28.4341755]},"properties":{"name":"Matrix Clothing Private LImited","address":"Khandsa Road, Village Mohammadpur, Gurgaon, Haryana 122001","country_code":"IN","os_id":"IN2021263GAKYRA","country_name":"India","has_approved_claim":false,"ppe_product_types":["Body coverall"],"ppe_contact_phone":null,"ppe_contact_email":"gautam.nair@matrixclothing.in","ppe_website":null,"is_closed":null}},{"id":"BD2020021YYZ55J","type":"Feature","geometry":{"type":"Point","coordinates":[90.2680347,23.798635]},"properties":{"name":"Maxcom International (Bd.) Ltd.","address":"37 Hemayatpur, Savar, 1347 Savar, Dhaka., Bangladesh","country_code":"BD","os_id":"BD2020021YYZ55J","country_name":"Bangladesh","has_approved_claim":false,"ppe_product_types":null,"ppe_contact_phone":null,"ppe_contact_email":null,"ppe_website":null,"is_closed":null}},{"id":"TR2019083N4Y9MH","type":"Feature","geometry":{"type":"Point","coordinates":[27.3651054,38.6156886]},"properties":{"name":"Mayteks Örme","address":"M.O.S.B Atatürk Cad., 1, Kisim 1 45030 Yunusemre Manisa Manisa","country_code":"TR","os_id":"TR2019083N4Y9MH","country_name":"Türkiye","has_approved_claim":false,"ppe_product_types":null,"ppe_contact_phone":null,"ppe_contact_email":null,"ppe_website":null,"is_closed":null}},{"id":"BD2019083GDC79P","type":"Feature","geometry":{"type":"Point","coordinates":[90.3760125,23.9279107]},"properties":{"name":"Muazuddin Knit Fashion Ltd.","address":"B-31, East Chandura, Kaliakoir, Gazipur, Gazipur 1751, Dhaka","country_code":"BD","os_id":"BD2019083GDC79P","country_name":"Bangladesh","has_approved_claim":false,"ppe_product_types":null,"ppe_contact_phone":null,"ppe_contact_email":null,"ppe_website":null,"is_closed":null}},{"id":"BD20190836WASDF","type":"Feature","geometry":{"type":"Point","coordinates":[90.3209478,23.9887791]},"properties":{"name":"Multifabs Limited","address":"Nayapara Kashimpur Gazipur Sadar Gazipur","country_code":"BD","os_id":"BD20190836WASDF","country_name":"Bangladesh","has_approved_claim":false,"ppe_product_types":null,"ppe_contact_phone":null,"ppe_contact_email":null,"ppe_website":null,"is_closed":null}},{"id":"CN2019083EAA5K2","type":"Feature","geometry":{"type":"Point","coordinates":[120.574945,32.370557]},"properties":{"name":"Nantong Aike Garment Company Ltd","address":"Group 14  Huanchi Village Jiang'An Town Rugao","country_code":"CN","os_id":"CN2019083EAA5K2","country_name":"China","has_approved_claim":false,"ppe_product_types":null,"ppe_contact_phone":null,"ppe_contact_email":null,"ppe_website":null,"is_closed":null}},{"id":"TR20191717J9X1V","type":"Feature","geometry":{"type":"Point","coordinates":[27.1912356,38.3781744]},"properties":{"name":"Narkonteks Tekstil Ihr. Ith. San Ve Tic Ltd","address":"Buca Organize Sanayii Bölgesi Dogus Cad. 3/19 Sok.No:12 Buca- Izmir 35160","country_code":"TR","os_id":"TR20191717J9X1V","country_name":"Türkiye","has_approved_claim":false,"ppe_product_types":null,"ppe_contact_phone":null,"ppe_contact_email":null,"ppe_website":null,"is_closed":null}},{"id":"MA2020311F7S42C","type":"Feature","geometry":{"type":"Point","coordinates":[-5.7988585,35.7381498]},"properties":{"name":"NEOTEX SARL","address":"Z.I. AL MAJD  841, TANGIER, TANGIER, TANGIER-TETOUAN-HOCEIMA, 90000, MOROCCO","country_code":"MA","os_id":"MA2020311F7S42C","country_name":"Morocco","has_approved_claim":false,"ppe_product_types":null,"ppe_contact_phone":null,"ppe_contact_email":null,"ppe_website":null,"is_closed":null}},{"id":"TW20191434F7C6B","type":"Feature","geometry":{"type":"Point","coordinates":[121.3009798,24.9936281]},"properties":{"name":"NIFCO TAIWAN CORPORATION (new facility)","address":"No.198-81, Sec. 2, Zhong’ai Rd Guanyin Township Tao-Yuan county Tao-Yuan 105 Taipei Taiwan","country_code":"TW","os_id":"TW20191434F7C6B","country_name":"Taiwan","has_approved_claim":false,"ppe_product_types":null,"ppe_contact_phone":null,"ppe_contact_email":null,"ppe_website":null,"is_closed":null}},{"id":"BD2020021TN70GK","type":"Feature","geometry":{"type":"Point","coordinates":[90.380132,23.9504063]},"properties":{"name":"Norp Knit Industries Ltd Unit 1","address":"North Khailkur, National University 1704 Gazipur","country_code":"BD","os_id":"BD2020021TN70GK","country_name":"Bangladesh","has_approved_claim":true,"ppe_product_types":null,"ppe_contact_phone":null,"ppe_contact_email":null,"ppe_website":null,"is_closed":null}},{"id":"VN2019098Z81K1X","type":"Feature","geometry":{"type":"Point","coordinates":[107.2292893,10.9420009]},"properties":{"name":"NYG ( Vietnam) Co.,Ltd","address":"Lot C Long Khanh Industrial Zone – Binh Loc commune,Long Khanh town,Dong Nai,Vietnam","country_code":"VN","os_id":"VN2019098Z81K1X","country_name":"Vietnam","has_approved_claim":false,"ppe_product_types":null,"ppe_contact_phone":null,"ppe_contact_email":null,"ppe_website":null,"is_closed":null}},{"id":"BD20190853J7T9Y","type":"Feature","geometry":{"type":"Point","coordinates":[90.380132,23.9504063]},"properties":{"name":"ORCHID GARMENTS LTD","address":"Chhaydana, Degerchala Road, National University, Gazipur, Dhaka, 1704","country_code":"BD","os_id":"BD20190853J7T9Y","country_name":"Bangladesh","has_approved_claim":false,"ppe_product_types":null,"ppe_contact_phone":null,"ppe_contact_email":null,"ppe_website":null,"is_closed":null}},{"id":"BD2019083W6A7M4","type":"Feature","geometry":{"type":"Point","coordinates":[90.3219053,24.0112973]},"properties":{"name":"Orient Allure Lingerie Ltd.","address":"Konabari, Gazipur Sadar, Gazipur- 1346, Dhaka","country_code":"BD","os_id":"BD2019083W6A7M4","country_name":"Bangladesh","has_approved_claim":false,"ppe_product_types":null,"ppe_contact_phone":null,"ppe_contact_email":null,"ppe_website":null,"is_closed":null}}]