[{"id":"IN2020053EKPZYQ","type":"Feature","geometry":{"type":"Point","coordinates":[76.0370529,30.8778377]},"properties":{"name":"AARTI INTERNATIONAL LIMITED","address":"VILL. BHAMAN KALAN & HARHIAN P.O UPPAL, KOHARA MACHIWARA ROAD Ludhiana Punjab 141113","country_code":"IN","os_id":"IN2020053EKPZYQ","country_name":"India","has_approved_claim":false,"ppe_product_types":null,"ppe_contact_phone":null,"ppe_contact_email":null,"ppe_website":null,"is_closed":null}},{"id":"BD2019248KE2X22","type":"Feature","geometry":{"type":"Point","coordinates":[90.35721730000002,23.9019195]},"properties":{"name":"AB Mart Fashion Wear Ltd.","address":"Plot 786, Holding 13/3, Vadam Mudafa Road, Kakil Sataish, East Mudafa, Baro Dewra, Tongi, Gazipur-1710","country_code":"BD","os_id":"BD2019248KE2X22","country_name":"Bangladesh","has_approved_claim":false,"ppe_product_types":["Masks"],"ppe_contact_phone":"8801677742","ppe_contact_email":"info@abmartfashion.com","ppe_website":"https://www.abmartfashion.com","is_closed":null}},{"id":"BD2021337FH4VRF","type":"Feature","geometry":{"type":"Point","coordinates":[90.5459576,23.7547504]},"properties":{"name":"ACS Textiles (Bangladesh) Ltd.","address":"Tetlabo, Barpa, Rupgonj, Narayangonj, Narayanganj, Dhaka, Rupgonj","country_code":"BD","os_id":"BD2021337FH4VRF","country_name":"Bangladesh","has_approved_claim":false,"ppe_product_types":null,"ppe_contact_phone":null,"ppe_contact_email":null,"ppe_website":null,"is_closed":null}},{"id":"BD2021320X5J73E","type":"Feature","geometry":{"type":"Point","coordinates":[90.5675838,23.7455726]},"properties":{"name":"ACS TOWEL LTD","address":"TETLABO WORD NO-3 \nPARABO RUPGANJ NARAYANGANJ DHAKA 1460","country_code":"BD","os_id":"BD2021320X5J73E","country_name":"Bangladesh","has_approved_claim":false,"ppe_product_types":null,"ppe_contact_phone":null,"ppe_contact_email":null,"ppe_website":null,"is_closed":null}},{"id":"IN20200535WN1RJ","type":"Feature","geometry":{"type":"Point","coordinates":[76.5178348,30.6478985]},"properties":{"name":"Active Clothing Co. Limited","address":"Active Clothing Co. Limited\n\nVillage Badali Ala Singh, Distt. Fategarh Sahib, Punjab   140406","country_code":"IN","os_id":"IN20200535WN1RJ","country_name":"India","has_approved_claim":false,"ppe_product_types":null,"ppe_contact_phone":null,"ppe_contact_email":null,"ppe_website":null,"is_closed":null}},{"id":"BR2021127DCGA4T","type":"Feature","geometry":{"type":"Point","coordinates":[-49.619345,-27.0415553]},"properties":{"name":"ADEMIR RIDIERI","address":"ENGENHEIRO WETTSTEIN, 425, CENTRO, PRESIDENTE GETULIO","country_code":"BR","os_id":"BR2021127DCGA4T","country_name":"Brazil","has_approved_claim":false,"ppe_product_types":null,"ppe_contact_phone":null,"ppe_contact_email":null,"ppe_website":null,"is_closed":null}},{"id":"BR2020253E5KYKS","type":"Feature","geometry":{"type":"Point","coordinates":[-49.1353036,-26.9280835]},"properties":{"name":"Adritex Confecção Ltda","address":"R Jonhann Ohf, 2680 , 89042300, Blumenau,","country_code":"BR","os_id":"BR2020253E5KYKS","country_name":"Brazil","has_approved_claim":false,"ppe_product_types":null,"ppe_contact_phone":null,"ppe_contact_email":null,"ppe_website":null,"is_closed":null}},{"id":"IN20190833ZJ72B","type":"Feature","geometry":{"type":"Point","coordinates":[76.8943619,28.3705493]},"properties":{"name":"Afflatus International","address":"Plot No 10 Sector – 8 Imt Manesar Gurgaon","country_code":"IN","os_id":"IN20190833ZJ72B","country_name":"India","has_approved_claim":false,"ppe_product_types":null,"ppe_contact_phone":null,"ppe_contact_email":null,"ppe_website":null,"is_closed":null}},{"id":"IT2019172WPBDHE","type":"Feature","geometry":{"type":"Point","coordinates":[11.0634856,43.908049]},"properties":{"name":"Agolab Studio S.R.L.","address":"Via Michelangelo 17/B, 59013 Montemurlo (PO), Italy","country_code":"IT","os_id":"IT2019172WPBDHE","country_name":"Italy","has_approved_claim":false,"ppe_product_types":null,"ppe_contact_phone":null,"ppe_contact_email":null,"ppe_website":null,"is_closed":null}},{"id":"IN20190868HHJT7","type":"Feature","geometry":{"type":"Point","coordinates":[77.3259812,11.2075041]},"properties":{"name":"Ahill Knit Exports","address":"Shed No.: 30, Nethaji Apparel Park, 641666, Tirupur, India","country_code":"IN","os_id":"IN20190868HHJT7","country_name":"India","has_approved_claim":false,"ppe_product_types":null,"ppe_contact_phone":null,"ppe_contact_email":null,"ppe_website":null,"is_closed":null}},{"id":"BD20192486DKEJ6","type":"Feature","geometry":{"type":"Point","coordinates":[90.35358130000002,23.7834258]},"properties":{"name":"Ahmed Fashions","address":"Plot - 34/1, Darussalam Road, Kallyanpur, Mirpur, Dhaka - 1216","country_code":"BD","os_id":"BD20192486DKEJ6","country_name":"Bangladesh","has_approved_claim":false,"ppe_product_types":null,"ppe_contact_phone":null,"ppe_contact_email":null,"ppe_website":null,"is_closed":null}},{"id":"IN2022074RR7MK6","type":"Feature","geometry":{"type":"Point","coordinates":[76.0949844,13.0186337]},"properties":{"name":"AHP APPARELS PVT LTD U60","address":"PLOT NO#207, A,B,D,E & F HASSAN GROWTH CENTER, Haasana, Karnataka, India, 573201","country_code":"IN","os_id":"IN2022074RR7MK6","country_name":"India","has_approved_claim":false,"ppe_product_types":null,"ppe_contact_phone":null,"ppe_contact_email":null,"ppe_website":null,"is_closed":null}},{"id":"TR202005353AJZN","type":"Feature","geometry":{"type":"Point","coordinates":[40.68998,37.423615]},"properties":{"name":"AKKUS TEKSTIL SAN TIC A.S-Mardin","address":"MARDİN ORG. SAN. BÖL. 1.BULVAR FİKRET GÜVEN CAD. 19 SK.NO:11/2 ARTUKLU MARDİN Artuklu Mardin","country_code":"TR","os_id":"TR202005353AJZN","country_name":"Türkiye","has_approved_claim":false,"ppe_product_types":null,"ppe_contact_phone":null,"ppe_contact_email":null,"ppe_website":null,"is_closed":null}},{"id":"TR2019171VTC1TQ","type":"Feature","geometry":{"type":"Point","coordinates":[28.866316,41.105496]},"properties":{"name":"Akozbekler Tekstil San.Ve Tic.","address":"Ugur Mumcu Mah. Ataturk Bulvari Cad. No:42 34265 Istanbul 34265 Istanbul","country_code":"TR","os_id":"TR2019171VTC1TQ","country_name":"Türkiye","has_approved_claim":false,"ppe_product_types":null,"ppe_contact_phone":null,"ppe_contact_email":null,"ppe_website":null,"is_closed":null}},{"id":"TR2020053VQJNJX","type":"Feature","geometry":{"type":"Point","coordinates":[28.247868,41.073678]},"properties":{"name":"Akpolat Lojistik Tekstil","address":"değirmenköy fevzipaşa mah.derman sokak no: 25/A-25/B Silivri Istanbul","country_code":"TR","os_id":"TR2020053VQJNJX","country_name":"Türkiye","has_approved_claim":false,"ppe_product_types":null,"ppe_contact_phone":null,"ppe_contact_email":null,"ppe_website":null,"is_closed":null}},{"id":"BD2020021PEVEE8","type":"Feature","geometry":{"type":"Point","coordinates":[91.8824544,22.3951524]},"properties":{"name":"Alamode Apparels Ltd.","address":"12/13 BSCIC I/A, Kalurghat, Chandgaon Chattogram 4233 Chattogram","country_code":"BD","os_id":"BD2020021PEVEE8","country_name":"Bangladesh","has_approved_claim":false,"ppe_product_types":null,"ppe_contact_phone":null,"ppe_contact_email":null,"ppe_website":null,"is_closed":null}},{"id":"BD20190953F2KKT","type":"Feature","geometry":{"type":"Point","coordinates":[90.3717025,23.8924837]},"properties":{"name":"Aleya Embroidery","address":"Plot # 808,Iqbql bhaban, Dhour, Nishadnagar, 1230, Dhaka, Bangladesh","country_code":"BD","os_id":"BD20190953F2KKT","country_name":"Bangladesh","has_approved_claim":false,"ppe_product_types":null,"ppe_contact_phone":null,"ppe_contact_email":null,"ppe_website":null,"is_closed":null}},{"id":"BD2020053P1N0B9","type":"Feature","geometry":{"type":"Point","coordinates":[90.259217,23.8275822]},"properties":{"name":"Al Muslim Washing Limited","address":"14, Gedda, Karnapara, Ulail, Savar, Dhaka-1340. Savar Dhaka 1340","country_code":"BD","os_id":"BD2020053P1N0B9","country_name":"Bangladesh","has_approved_claim":false,"ppe_product_types":null,"ppe_contact_phone":null,"ppe_contact_email":null,"ppe_website":null,"is_closed":null}},{"id":"TR2020053AX52GG","type":"Feature","geometry":{"type":"Point","coordinates":[27.880911,41.247869]},"properties":{"name":"Aloha Tekstil Turizm İnsaat Enerji San ve.Tic.A.S.","address":"Velimeşe Mah. Akbayır Küme Evler. No:98 A-B Ergene Ergene Tekirdag 59850","country_code":"TR","os_id":"TR2020053AX52GG","country_name":"Türkiye","has_approved_claim":false,"ppe_product_types":null,"ppe_contact_phone":null,"ppe_contact_email":null,"ppe_website":null,"is_closed":null}},{"id":"IN2021270SDWMJD","type":"Feature","geometry":{"type":"Point","coordinates":[88.3766167,22.5883372]},"properties":{"name":"Alpha Overseas","address":"Modern Integrated Readymade Garments Complex,  B2-26/New First & Second Floor Lalabagan C.M.D.A. Road (Kalinagar) Po- P.S- Rabindranaga Kolkata West Bengal 700066","country_code":"IN","os_id":"IN2021270SDWMJD","country_name":"India","has_approved_claim":false,"ppe_product_types":null,"ppe_contact_phone":null,"ppe_contact_email":null,"ppe_website":null,"is_closed":null}},{"id":"EG2022300EQH26K","type":"Feature","geometry":{"type":"Point","coordinates":[30.5327214,30.3593519]},"properties":{"name":"Alroubaia Fourtex Textiles Co,S.A.E","address":"3rd Industrial zone Extension, El Sadat City 32958","country_code":"EG","os_id":"EG2022300EQH26K","country_name":"Egypt","has_approved_claim":false,"ppe_product_types":null,"ppe_contact_phone":null,"ppe_contact_email":null,"ppe_website":null,"is_closed":null}},{"id":"IN2019083XAE8BP","type":"Feature","geometry":{"type":"Point","coordinates":[77.3158175,11.1108022]},"properties":{"name":"Ambertex Universal Exports","address":"No  36 Vivekananda Nagar Behind Prema School College Road Tirupur","country_code":"IN","os_id":"IN2019083XAE8BP","country_name":"India","has_approved_claim":false,"ppe_product_types":null,"ppe_contact_phone":null,"ppe_contact_email":null,"ppe_website":null,"is_closed":null}},{"id":"PK2019083QC1JNX","type":"Feature","geometry":{"type":"Point","coordinates":[74.3595137,31.4132143]},"properties":{"name":"Ambition Apparel","address":"20Km Off Ferozpur Road Glaxo Town Lahore","country_code":"PK","os_id":"PK2019083QC1JNX","country_name":"Pakistan","has_approved_claim":false,"ppe_product_types":null,"ppe_contact_phone":null,"ppe_contact_email":null,"ppe_website":null,"is_closed":null}},{"id":"CN20190980SXGK7","type":"Feature","geometry":{"type":"Point","coordinates":[120.253536,30.468615]},"properties":{"name":"Amelia Knight (Hangzhou) Cosmetics Co., Ltd.","address":"No.528 Shunfeng Road, Building 4, Qianjiang Economic Development Zone, Hangzhou, Zhejiang, 311106","country_code":"CN","os_id":"CN20190980SXGK7","country_name":"China","has_approved_claim":false,"ppe_product_types":null,"ppe_contact_phone":null,"ppe_contact_email":null,"ppe_website":null,"is_closed":null}},{"id":"BD2020021NTE65N","type":"Feature","geometry":{"type":"Point","coordinates":[91.2842887,23.3116262]},"properties":{"name":"AMIR SHIRTS LTD","address":"Sufua, Kalikapur Union, Chauddagram, Comilla, Bangladesh  Comilla","country_code":"BD","os_id":"BD2020021NTE65N","country_name":"Bangladesh","has_approved_claim":false,"ppe_product_types":null,"ppe_contact_phone":null,"ppe_contact_email":null,"ppe_website":null,"is_closed":null}},{"id":"BD2019268D2XZ7M","type":"Feature","geometry":{"type":"Point","coordinates":[90.3779667,23.953676]},"properties":{"name":"Ananta Casualwear Ltd","address":"K.B. Bazar, Kunia, Targash Gazipur Gazipur zila","country_code":"BD","os_id":"BD2019268D2XZ7M","country_name":"Bangladesh","has_approved_claim":false,"ppe_product_types":null,"ppe_contact_phone":null,"ppe_contact_email":null,"ppe_website":null,"is_closed":null}},{"id":"BR2019086M91N01","type":"Feature","geometry":{"type":"Point","coordinates":[-46.5169468,-23.5134142]},"properties":{"name":"Andrea Campos Tavares Me","address":"Av.Sao Miguel,1400/1450, 3620000, So Paulo, Brazil","country_code":"BR","os_id":"BR2019086M91N01","country_name":"Brazil","has_approved_claim":false,"ppe_product_types":null,"ppe_contact_phone":null,"ppe_contact_email":null,"ppe_website":null,"is_closed":null}},{"id":"CN2019098ARJ9N0","type":"Feature","geometry":{"type":"Point","coordinates":[116.7413341,33.8908341]},"properties":{"name":"Anhui Footforward Socks Co. Ltd.","address":"West Baiyang Road,Suixi Economic Development Zone,Huaibei,Anhui,China","country_code":"CN","os_id":"CN2019098ARJ9N0","country_name":"China","has_approved_claim":false,"ppe_product_types":null,"ppe_contact_phone":null,"ppe_contact_email":null,"ppe_website":null,"is_closed":null}},{"id":"CN2019172QRTG99","type":"Feature","geometry":{"type":"Point","coordinates":[116.9459044,31.0310352]},"properties":{"name":"Anhui Xiazhen Down & Feather Co. Ltd.","address":"Tong An South Road 988 Tongcheng 231400 Anhui","country_code":"CN","os_id":"CN2019172QRTG99","country_name":"China","has_approved_claim":false,"ppe_product_types":null,"ppe_contact_phone":null,"ppe_contact_email":null,"ppe_website":null,"is_closed":null}},{"id":"VN2019143DZ3F5V","type":"Feature","geometry":{"type":"Point","coordinates":[109.0661253,14.5345745]},"properties":{"name":"An Phat Invest Joint Stock Company -  Zone A ( Unit  2, 3, 4)","address":"Tam Quan Industrial Zone, Tam Quan Town, Hoai Nhon District, Binh Dinh Province   Quy Nhon 53000 Binh Dinh Vietnam","country_code":"VN","os_id":"VN2019143DZ3F5V","country_name":"Vietnam","has_approved_claim":false,"ppe_product_types":null,"ppe_contact_phone":null,"ppe_contact_email":null,"ppe_website":null,"is_closed":null}},{"id":"IT20190873XF7HZ","type":"Feature","geometry":{"type":"Point","coordinates":[13.5029325,43.0930449]},"properties":{"name":"ANTORAF S.R.L.","address":"VIA SPINETO 14/O/P 鈥63837 -  FALERONE LOC. PIANE 鈥FERMO","country_code":"IT","os_id":"IT20190873XF7HZ","country_name":"Italy","has_approved_claim":false,"ppe_product_types":null,"ppe_contact_phone":null,"ppe_contact_email":null,"ppe_website":null,"is_closed":null}},{"id":"BD20220637T9QMA","type":"Feature","geometry":{"type":"Point","coordinates":[90.222418,24.069452]},"properties":{"name":"Apex Footwear Ltd.","address":"East Chandra, Shafipur, Kaliakoir, Gazipur 1751, Bangladesh","country_code":"BD","os_id":"BD20220637T9QMA","country_name":"Bangladesh","has_approved_claim":false,"ppe_product_types":null,"ppe_contact_phone":null,"ppe_contact_email":null,"ppe_website":null,"is_closed":null}},{"id":"BD2019248KH0P2W","type":"Feature","geometry":{"type":"Point","coordinates":[90.2614979,24.0435298]},"properties":{"name":"Apex Textile Printing Mills Ltd.","address":"Apex Holdings Ltd. Building, Apex Road, Chandra (Horinhati), Kaliakair, Gazipur-1751","country_code":"BD","os_id":"BD2019248KH0P2W","country_name":"Bangladesh","has_approved_claim":false,"ppe_product_types":null,"ppe_contact_phone":null,"ppe_contact_email":null,"ppe_website":null,"is_closed":null}},{"id":"BD2019171NN11EN","type":"Feature","geometry":{"type":"Point","coordinates":[90.36116589999999,23.8185223]},"properties":{"name":"A Plus Industries Ltd","address":"Plot 28, Section 7, Milk Vita Road, Mirpur Dhaka Dhaka 1216","country_code":"BD","os_id":"BD2019171NN11EN","country_name":"Bangladesh","has_approved_claim":false,"ppe_product_types":null,"ppe_contact_phone":null,"ppe_contact_email":null,"ppe_website":null,"is_closed":null}},{"id":"BD201909637ZH61","type":"Feature","geometry":{"type":"Point","coordinates":[90.3172039,23.9101983]},"properties":{"name":"Apollo Stickers Co.","address":"Plot # 649650 Depz Road Zirabo Ashulia Savar Dhaka Savar Dhaka","country_code":"BD","os_id":"BD201909637ZH61","country_name":"Bangladesh","has_approved_claim":false,"ppe_product_types":null,"ppe_contact_phone":null,"ppe_contact_email":null,"ppe_website":null,"is_closed":null}},{"id":"BD2019172ATSB15","type":"Feature","geometry":{"type":"Point","coordinates":[90.3817878,23.984631]},"properties":{"name":"Apparel Plus Ltd (Formerly Tts Manufacturing Ltd)","address":"Holding C-18, Dilan Complex, Dhaka Road, Chandona Chowrasta Gazipur Dhaka 1702","country_code":"BD","os_id":"BD2019172ATSB15","country_name":"Bangladesh","has_approved_claim":false,"ppe_product_types":null,"ppe_contact_phone":null,"ppe_contact_email":null,"ppe_website":null,"is_closed":null}},{"id":"BD20192482QMNJM","type":"Feature","geometry":{"type":"Point","coordinates":[90.4100038,23.8882398]},"properties":{"name":"APS Apparels Ltd.","address":"House - 106 (1st Floor), Baitur Rahmat Jame Mosque Road, East Faidabad, Dakshin Khan, Uttara, Dhaka - 1230","country_code":"BD","os_id":"BD20192482QMNJM","country_name":"Bangladesh","has_approved_claim":false,"ppe_product_types":null,"ppe_contact_phone":null,"ppe_contact_email":null,"ppe_website":null,"is_closed":null}},{"id":"TR2019143NPNDKT","type":"Feature","geometry":{"type":"Point","coordinates":[28.6547994,41.06051859999999]},"properties":{"name":"Arikbey","address":"Akcaburgaz Mah.Ugur Mumcu Cad.no:47 B Blok Esenyurt  Istanbul 34552 Istanbul Turkey","country_code":"TR","os_id":"TR2019143NPNDKT","country_name":"Türkiye","has_approved_claim":false,"ppe_product_types":null,"ppe_contact_phone":null,"ppe_contact_email":null,"ppe_website":null,"is_closed":null}},{"id":"BD2019083G1709Y","type":"Feature","geometry":{"type":"Point","coordinates":[90.4018807,23.7713589]},"properties":{"name":"Armana Apparels  Limited","address":"232-234 Tejgaon Industrial Area Dhaka Dhaka zila Bangladesh","country_code":"BD","os_id":"BD2019083G1709Y","country_name":"Bangladesh","has_approved_claim":false,"ppe_product_types":null,"ppe_contact_phone":null,"ppe_contact_email":null,"ppe_website":null,"is_closed":null}},{"id":"BD20211684TK4M3","type":"Feature","geometry":{"type":"Point","coordinates":[90.380132,23.9504063]},"properties":{"name":"Arrival Fashion Limited","address":"Colomesshor, Board Bazar, Po:-National University , P.S: Gazipur, Bangladesh, P.O.-National Universi, Gazipur","country_code":"BD","os_id":"BD20211684TK4M3","country_name":"Bangladesh","has_approved_claim":false,"ppe_product_types":null,"ppe_contact_phone":null,"ppe_contact_email":null,"ppe_website":null,"is_closed":null}},{"id":"TR2020148J9B9EM","type":"Feature","geometry":{"type":"Point","coordinates":[30.4122917,40.7193334]},"properties":{"name":"Art Giyim San Tic As","address":"1 Organize Sanayi Bolgesi 1 Yol No 10 Arifiye Sakarya","country_code":"TR","os_id":"TR2020148J9B9EM","country_name":"Türkiye","has_approved_claim":false,"ppe_product_types":null,"ppe_contact_phone":null,"ppe_contact_email":null,"ppe_website":null,"is_closed":null}},{"id":"IN2020337GJTQGB","type":"Feature","geometry":{"type":"Point","coordinates":[78.1635688,11.6335634]},"properties":{"name":"ARTHANARI LOOM CENTRE (TEXTILE) PVT LTD","address":"78, Sababathi Kadu\nKalarampatty,\nErumapalayam Post,\nSalem-636015\nTamilnadu, Salem","country_code":"IN","os_id":"IN2020337GJTQGB","country_name":"India","has_approved_claim":false,"ppe_product_types":null,"ppe_contact_phone":null,"ppe_contact_email":null,"ppe_website":null,"is_closed":null}},{"id":"TR20200577EREBW","type":"Feature","geometry":{"type":"Point","coordinates":[31.303863,40.776033]},"properties":{"name":"Artkar Tekstil San. Tic. Ltd. Sti.","address":"Uckopru Koyu, Fatih Mahallesi 109 Sokak No:20 Kaynasli / DuzceDuzce81900","country_code":"TR","os_id":"TR20200577EREBW","country_name":"Türkiye","has_approved_claim":false,"ppe_product_types":null,"ppe_contact_phone":null,"ppe_contact_email":null,"ppe_website":null,"is_closed":null}},{"id":"IN2020337TPKK1Z","type":"Feature","geometry":{"type":"Point","coordinates":[76.2775917,13.2980056]},"properties":{"name":"Arvind Limited (Arsikere)","address":"No: 24/6, Kodihalli, Tiptur Road, Kasaba Hobli, Arsikare Taluk, Hassan District, Karnataka Karnataka Karnataka","country_code":"IN","os_id":"IN2020337TPKK1Z","country_name":"India","has_approved_claim":false,"ppe_product_types":null,"ppe_contact_phone":null,"ppe_contact_email":null,"ppe_website":null,"is_closed":null}},{"id":"IN2020309RP6N7Q","type":"Feature","geometry":{"type":"Point","coordinates":[72.4439694,23.1360123]},"properties":{"name":"Arvind Ltd. Motibhoyan [Technical Product Division]","address":"Po. Motibhoyan Nr.Khatraj Cross Road, Ta.: Kalol Dist.: Gandhinagar, Gujarat, 382721, India","country_code":"IN","os_id":"IN2020309RP6N7Q","country_name":"India","has_approved_claim":false,"ppe_product_types":null,"ppe_contact_phone":null,"ppe_contact_email":null,"ppe_website":null,"is_closed":null}},{"id":"TR2019085J6M33H","type":"Feature","geometry":{"type":"Point","coordinates":[28.901604,41.030143]},"properties":{"name":"ASENA CORAP SANAYI VE TIC","address":"Terazidere Mah. Günes Cad, Karaman Sokak No:17 Bayrampasa, Istanbul, 34035","country_code":"TR","os_id":"TR2019085J6M33H","country_name":"Türkiye","has_approved_claim":false,"ppe_product_types":null,"ppe_contact_phone":null,"ppe_contact_email":null,"ppe_website":null,"is_closed":null}},{"id":"BD2019172N6FGVH","type":"Feature","geometry":{"type":"Point","coordinates":[90.4173685,23.8679609]},"properties":{"name":"Ashique Dress Design Ltd.","address":"Ashique Complex, 43, Chalabon, Azampur, Uttra Dhaka Dhaka 1230","country_code":"BD","os_id":"BD2019172N6FGVH","country_name":"Bangladesh","has_approved_claim":false,"ppe_product_types":null,"ppe_contact_phone":null,"ppe_contact_email":null,"ppe_website":null,"is_closed":null}},{"id":"RS2019176SR4M5D","type":"Feature","geometry":{"type":"Point","coordinates":[21.9489544,43.3049486]},"properties":{"name":"Aster Tekstil D.O.O. Nis","address":"Bulevar Sv. Cara Konstantina, 80-86 Nis Southern And Eastern 18000","country_code":"RS","os_id":"RS2019176SR4M5D","country_name":"Serbia","has_approved_claim":false,"ppe_product_types":null,"ppe_contact_phone":null,"ppe_contact_email":null,"ppe_website":null,"is_closed":null}},{"id":"TR2019322482DN9","type":"Feature","geometry":{"type":"Point","coordinates":[36.57270889999999,40.700909]},"properties":{"name":"Aster Tekstil San. Ve Dis Tic. A.S [Erbaa]","address":"Kelkit mah. Beylikbuku Cad.  Erbaa Organize San Bol. No: 27, Erbaa, Tokat, Turkey","country_code":"TR","os_id":"TR2019322482DN9","country_name":"Türkiye","has_approved_claim":false,"ppe_product_types":null,"ppe_contact_phone":null,"ppe_contact_email":null,"ppe_website":null,"is_closed":null}},{"id":"BR20200538RB3EW","type":"Feature","geometry":{"type":"Point","coordinates":[-49.2690152,-26.8571561]},"properties":{"name":"A.S.T. ESTAMPARIA E CONFECCOES LTDA","address":"R ARTURO GIOTTI, 257 - ARAPONGUINHAS, Timbo, Santa Catarina, 89120-000","country_code":"BR","os_id":"BR20200538RB3EW","country_name":"Brazil","has_approved_claim":false,"ppe_product_types":null,"ppe_contact_phone":null,"ppe_contact_email":null,"ppe_website":null,"is_closed":null}}]