[{"id":"TR2020053F2T7VZ","type":"Feature","geometry":{"type":"Point","coordinates":[29.094888,41.003608]},"properties":{"name":"INDIGO WHITE TEKSTIL KONFEKSIYON PAZARLAMA SAN. VE TIC. A.S.","address":"AKCABURGAZ MAH. 3095 SOK NO.4  Istanbul 34522","country_code":"TR","os_id":"TR2020053F2T7VZ","country_name":"Türkiye","has_approved_claim":false,"ppe_product_types":null,"ppe_contact_phone":null,"ppe_contact_email":null,"ppe_website":null,"is_closed":null}},{"id":"BR2021069ZHTDXW","type":"Feature","geometry":{"type":"Point","coordinates":[-51.10484539999999,-29.5923697]},"properties":{"name":"Industria De Calcados Wirth LTDA","address":"Rua Frei Caneca, 600, Bairro Moinho Velho, Dois Irmãos – Rs, 93950-000, Brazil, Rio Grande Do Sul","country_code":"BR","os_id":"BR2021069ZHTDXW","country_name":"Brazil","has_approved_claim":false,"ppe_product_types":null,"ppe_contact_phone":null,"ppe_contact_email":null,"ppe_website":null,"is_closed":null}},{"id":"BR2021354R2KQW5","type":"Feature","geometry":{"type":"Point","coordinates":[-48.768187,-27.264563]},"properties":{"name":"Industria E Comercio De Calçados Ala Ltda","address":"Rua Valentim Pereira De Melo - 255-, 88230000, Canelinha,","country_code":"BR","os_id":"BR2021354R2KQW5","country_name":"Brazil","has_approved_claim":false,"ppe_product_types":null,"ppe_contact_phone":null,"ppe_contact_email":null,"ppe_website":null,"is_closed":null}},{"id":"GB2019318XCWEVF","type":"Feature","geometry":{"type":"Point","coordinates":[-1.6061538,53.78074429999999]},"properties":{"name":"Infinity Apparel","address":"3 Whitehall Cross, Leeds, Leeds, England","country_code":"GB","os_id":"GB2019318XCWEVF","country_name":"United Kingdom","has_approved_claim":false,"ppe_product_types":null,"ppe_contact_phone":null,"ppe_contact_email":null,"ppe_website":null,"is_closed":null}},{"id":"BR2021230JG6BSA","type":"Feature","geometry":{"type":"Point","coordinates":[-44.9750699,-19.8686605]},"properties":{"name":"Injepol Calcados Industria E Comercio Ltda","address":"Av Espirito Santo, 410,Nova Serrana,35526780","country_code":"BR","os_id":"BR2021230JG6BSA","country_name":"Brazil","has_approved_claim":false,"ppe_product_types":null,"ppe_contact_phone":null,"ppe_contact_email":null,"ppe_website":null,"is_closed":null}},{"id":"CN2020217KBCQAA","type":"Feature","geometry":{"type":"Point","coordinates":[111.605926,40.744909]},"properties":{"name":"Inner Mongolia Edelweiss Cashmere products","address":"No.6, D1 Zone, Yulong Industrial Park, Yuquan District, 010000,  Huhhot, Inner mongolia","country_code":"CN","os_id":"CN2020217KBCQAA","country_name":"China","has_approved_claim":false,"ppe_product_types":null,"ppe_contact_phone":null,"ppe_contact_email":null,"ppe_website":null,"is_closed":null}},{"id":"IN20190858TENPB","type":"Feature","geometry":{"type":"Point","coordinates":[76.999803,28.4373195]},"properties":{"name":"INSPIRATION OVERSEAS","address":"Plot No. 36, Phase 6, Sector 37, Gurgaon, Haryana, 122001","country_code":"IN","os_id":"IN20190858TENPB","country_name":"India","has_approved_claim":false,"ppe_product_types":null,"ppe_contact_phone":null,"ppe_contact_email":null,"ppe_website":null,"is_closed":null}},{"id":"PK2022216DKSSEA","type":"Feature","geometry":{"type":"Point","coordinates":[73.0287209,31.4692511]},"properties":{"name":"Interloop Limited-Apparel Division","address":"Chak No 117 / JB Millat Road, Dhanola, Faisalabad,  , Faisalabad, Punjab, 38000","country_code":"PK","os_id":"PK2022216DKSSEA","country_name":"Pakistan","has_approved_claim":false,"ppe_product_types":null,"ppe_contact_phone":null,"ppe_contact_email":null,"ppe_website":null,"is_closed":null}},{"id":"PT2020190EV6K1N","type":"Feature","geometry":{"type":"Point","coordinates":[-9.0790724,38.6608149]},"properties":{"name":"Irmão Rodrigues- Confecções, SA","address":"Rua do Barreiro nr 233Gilmonde Barcelos4755-230","country_code":"PT","os_id":"PT2020190EV6K1N","country_name":"Portugal","has_approved_claim":false,"ppe_product_types":null,"ppe_contact_phone":null,"ppe_contact_email":null,"ppe_website":null,"is_closed":null}},{"id":"TR2019276H78N3S","type":"Feature","geometry":{"type":"Point","coordinates":[28.6826076,41.0028863]},"properties":{"name":"ISIL TEKSTIL SAN.VE TIC.LTD.STI.","address":"yakuplu mah.beysan san.sitesi carsi sok., 3, 34524, beylikduzu, istanbul, istanbul","country_code":"TR","os_id":"TR2019276H78N3S","country_name":"Türkiye","has_approved_claim":false,"ppe_product_types":null,"ppe_contact_phone":null,"ppe_contact_email":null,"ppe_website":null,"is_closed":null}},{"id":"BD20221549TGW05","type":"Feature","geometry":{"type":"Point","coordinates":[90.291356,23.9370153]},"properties":{"name":"Islam Dresses Limited","address":"Jamgora, Diakhali, Yearpur, Zirabo, Ashulia, Savar","country_code":"BD","os_id":"BD20221549TGW05","country_name":"Bangladesh","has_approved_claim":false,"ppe_product_types":null,"ppe_contact_phone":null,"ppe_contact_email":null,"ppe_website":null,"is_closed":null}},{"id":"BR2021253861PY6","type":"Feature","geometry":{"type":"Point","coordinates":[-49.0161259,-28.6248273]},"properties":{"name":"ITAMAR DA SILVA - O MARCIO","address":"ARGEMIRO BONIFACIO DE SOUZA, 36, Beija Flor, Jaguaruna","country_code":"BR","os_id":"BR2021253861PY6","country_name":"Brazil","has_approved_claim":false,"ppe_product_types":null,"ppe_contact_phone":null,"ppe_contact_email":null,"ppe_website":null,"is_closed":null}},{"id":"PT20200832YKA3K","type":"Feature","geometry":{"type":"Point","coordinates":[-8.6527222,41.5609109]},"properties":{"name":"Jadifex Malhas e Confecções Lda.","address":"Rua do Barreiro, 525, 4750-001 Abade de Neiva - Barcelos","country_code":"PT","os_id":"PT20200832YKA3K","country_name":"Portugal","has_approved_claim":true,"ppe_product_types":null,"ppe_contact_phone":null,"ppe_contact_email":null,"ppe_website":null,"is_closed":null}},{"id":"BR2021253KK6GGF","type":"Feature","geometry":{"type":"Point","coordinates":[-42.5252996,-22.2519229]},"properties":{"name":"JAQUEL CONFECCOES DE LINGERIE E ARTIGOS DO VESTUARIO LTDA","address":"V NOSSA SENHORA DO AMPARO, 1966, PRADO, Nova Friburgo","country_code":"BR","os_id":"BR2021253KK6GGF","country_name":"Brazil","has_approved_claim":false,"ppe_product_types":null,"ppe_contact_phone":null,"ppe_contact_email":null,"ppe_website":null,"is_closed":null}},{"id":"PK2019175CC7C43","type":"Feature","geometry":{"type":"Point","coordinates":[66.9877785,24.8921307]},"properties":{"name":"Jb Industries","address":"Plot No. D-62/A, Site Area  Karachi Sindh 75700","country_code":"PK","os_id":"PK2019175CC7C43","country_name":"Pakistan","has_approved_claim":false,"ppe_product_types":null,"ppe_contact_phone":null,"ppe_contact_email":null,"ppe_website":null,"is_closed":null}},{"id":"BR2021253HY4ZZM","type":"Feature","geometry":{"type":"Point","coordinates":[-49.0832408,-26.4912873]},"properties":{"name":"JB SERVIÇOS DE TING. E ACAB. EM ARTIGOS TEXTEIS EIRELI - EPP","address":"R. ARGENTINA,47 SL.02 CENTRO, JARAGUÁ DO SUL","country_code":"BR","os_id":"BR2021253HY4ZZM","country_name":"Brazil","has_approved_claim":false,"ppe_product_types":null,"ppe_contact_phone":null,"ppe_contact_email":null,"ppe_website":null,"is_closed":null}},{"id":"TW2019098KPCGXA","type":"Feature","geometry":{"type":"Point","coordinates":[120.2268758,22.9998999]},"properties":{"name":"Jen-Wei Knitting Co. Ltd.","address":"1-8 Hsing Cheng Liao, ,Kung Wei Li, Matou District,Tainan ,Taiwan,Taiwan","country_code":"TW","os_id":"TW2019098KPCGXA","country_name":"Taiwan","has_approved_claim":false,"ppe_product_types":null,"ppe_contact_phone":null,"ppe_contact_email":null,"ppe_website":null,"is_closed":null}},{"id":"JO202230455YCJC","type":"Feature","geometry":{"type":"Point","coordinates":[35.910635,31.9539494]},"properties":{"name":"JERASH GARMENTS & FASHIONS MANUFACTURING CO LTD [UNIT 2]","address":"Al-Tajamouat Industrial Estate-Sahab Alazraq Street, Al Eman  Khrlba  Al Souq Sahab - Block T and  V, Amman, Amman","country_code":"JO","os_id":"JO202230455YCJC","country_name":"Jordan","has_approved_claim":false,"ppe_product_types":null,"ppe_contact_phone":null,"ppe_contact_email":null,"ppe_website":null,"is_closed":null}},{"id":"IT2020219SV9J3Z","type":"Feature","geometry":{"type":"Point","coordinates":[9.4943915,45.699476]},"properties":{"name":"Jersay Lomellina","address":"Via Don Pedrinelli 94, 24030, Carvico, Bergamo","country_code":"IT","os_id":"IT2020219SV9J3Z","country_name":"Italy","has_approved_claim":false,"ppe_product_types":null,"ppe_contact_phone":null,"ppe_contact_email":null,"ppe_website":null,"is_closed":null}},{"id":"GT20191006HT5FD","type":"Feature","geometry":{"type":"Point","coordinates":[-90.5929754,14.5242292]},"properties":{"name":"J.H. Trading, S.A.","address":"1ra. Calle 1-75 Zona 1, Villa Nueva, Guatemala","country_code":"GT","os_id":"GT20191006HT5FD","country_name":"Guatemala","has_approved_claim":false,"ppe_product_types":null,"ppe_contact_phone":null,"ppe_contact_email":null,"ppe_website":null,"is_closed":null}},{"id":"CN202005320QN6H","type":"Feature","geometry":{"type":"Point","coordinates":[118.469286,24.6940278]},"properties":{"name":"Jiafu (Fujian) Dyeing and Finishing Co.,Ltd.","address":"NO.31,Jianxing Road,Andong Economic Development Zone Jinjiang Fujian","country_code":"CN","os_id":"CN202005320QN6H","country_name":"China","has_approved_claim":false,"ppe_product_types":null,"ppe_contact_phone":null,"ppe_contact_email":null,"ppe_website":null,"is_closed":null}},{"id":"CN2021006RJSQPC","type":"Feature","geometry":{"type":"Point","coordinates":[120.8844721,31.5978274]},"properties":{"name":"Jiangsu Fuxing Knitting & Dyeing Co., LTD.","address":"Hongdou RD, Furong, Baimao Town, Changshu","country_code":"CN","os_id":"CN2021006RJSQPC","country_name":"China","has_approved_claim":false,"ppe_product_types":null,"ppe_contact_phone":null,"ppe_contact_email":null,"ppe_website":null,"is_closed":null}},{"id":"CN2020329NV3QAQ","type":"Feature","geometry":{"type":"Point","coordinates":[120.5462,31.876804]},"properties":{"name":"JIANGSU GUOTAI HUASHENG INDUST RIAL CO. LTD.","address":"F16-22, GUOTAI NEW PLAZA, NO.125 RENMIN RD, ZHANGJ, JIANGSU","country_code":"CN","os_id":"CN2020329NV3QAQ","country_name":"China","has_approved_claim":false,"ppe_product_types":null,"ppe_contact_phone":null,"ppe_contact_email":null,"ppe_website":null,"is_closed":null}},{"id":"CN2022062NZA0DA","type":"Feature","geometry":{"type":"Point","coordinates":[120.5671577,30.8776846]},"properties":{"name":"JIANGSU HENGLI CHEMICAL FIBER CO.,LTD","address":"1 Hengli Road, Wujiang District, Suzhou City, Jiangsu Province, China","country_code":"CN","os_id":"CN2022062NZA0DA","country_name":"China","has_approved_claim":false,"ppe_product_types":null,"ppe_contact_phone":null,"ppe_contact_email":null,"ppe_website":null,"is_closed":null}},{"id":"CN202304179HC5F","type":"Feature","geometry":{"type":"Point","coordinates":[120.670142,30.905922]},"properties":{"name":"Jiangsu Hengli Chemical Fibre incorporated company","address":"1 Hengli Road Nanma Economic Development Zone, Shengze Town, Wujiang District, Suzhou City","country_code":"CN","os_id":"CN202304179HC5F","country_name":"China","has_approved_claim":false,"ppe_product_types":null,"ppe_contact_phone":null,"ppe_contact_email":null,"ppe_website":null,"is_closed":null}},{"id":"CN2019085B0G4HT","type":"Feature","geometry":{"type":"Point","coordinates":[106.198393,37.99746]},"properties":{"name":"Jiangsu Jing Meng Knitting Co., Ltd","address":"No. 8 Fongjin Road, The Wuzhong Economic and Technical Open Zone Suzhou","country_code":"CN","os_id":"CN2019085B0G4HT","country_name":"China","has_approved_claim":false,"ppe_product_types":null,"ppe_contact_phone":null,"ppe_contact_email":null,"ppe_website":null,"is_closed":null}},{"id":"CN2019143RAY8BR","type":"Feature","geometry":{"type":"Point","coordinates":[119.6006,31.753353]},"properties":{"name":"Jiangsu Liberty Clothing Co., Ltd.","address":"88 Chenfeng Road   Jintan 213200 Jiangsu China","country_code":"CN","os_id":"CN2019143RAY8BR","country_name":"China","has_approved_claim":false,"ppe_product_types":null,"ppe_contact_phone":null,"ppe_contact_email":null,"ppe_website":null,"is_closed":null}},{"id":"CN2019083TK8ZD9","type":"Feature","geometry":{"type":"Point","coordinates":[119.619508,31.742375]},"properties":{"name":"Jiangsu Shuntian Jintan Garment Co., Ltd.","address":"No. 218 Huacheng Road Jintan District ChangZhou Jiangsu","country_code":"CN","os_id":"CN2019083TK8ZD9","country_name":"China","has_approved_claim":false,"ppe_product_types":null,"ppe_contact_phone":null,"ppe_contact_email":null,"ppe_website":null,"is_closed":null}},{"id":"CN2019083C9Q27X","type":"Feature","geometry":{"type":"Point","coordinates":[118.806677,32.319886]},"properties":{"name":"Jiangsu Suntex Garments Ltd","address":"No 85 Times Road Luhe Economic Development Zone Nanjing City Jiangsu Province","country_code":"CN","os_id":"CN2019083C9Q27X","country_name":"China","has_approved_claim":false,"ppe_product_types":null,"ppe_contact_phone":null,"ppe_contact_email":null,"ppe_website":null,"is_closed":null}},{"id":"CN201914391HYWT","type":"Feature","geometry":{"type":"Point","coordinates":[120.5999519,32.151494]},"properties":{"name":"Jiangsu Tianhai Garments Co.,Ltd","address":"NO.8,Tianhai Road Guoyuan, Changjiang Town  Rugao City 226542 Jiangsu China","country_code":"CN","os_id":"CN201914391HYWT","country_name":"China","has_approved_claim":false,"ppe_product_types":null,"ppe_contact_phone":null,"ppe_contact_email":null,"ppe_website":null,"is_closed":null}},{"id":"CN2019085EQYTEN","type":"Feature","geometry":{"type":"Point","coordinates":[120.394519,31.759888]},"properties":{"name":"JIANGSU XIAYUNFEI GARMENT CO., LTD.","address":"8 JINZHUANG ROAD ZHUTANG TOWN JIANGYIN JIANGSU 214400","country_code":"CN","os_id":"CN2019085EQYTEN","country_name":"China","has_approved_claim":false,"ppe_product_types":null,"ppe_contact_phone":null,"ppe_contact_email":null,"ppe_website":null,"is_closed":null}},{"id":"CN2019097VHA6T3","type":"Feature","geometry":{"type":"Point","coordinates":[120.894291,31.980171]},"properties":{"name":"Jiangsu Yeqin Apparel Co.,Ltd","address":"No.828 Jiang Hai Road, Nantong, Jiangsu, China","country_code":"CN","os_id":"CN2019097VHA6T3","country_name":"China","has_approved_claim":false,"ppe_product_types":null,"ppe_contact_phone":null,"ppe_contact_email":null,"ppe_website":null,"is_closed":null}},{"id":"CN202019128ABRQ","type":"Feature","geometry":{"type":"Point","coordinates":[120.123774,33.326836]},"properties":{"name":"Jiangsu Yueda Cotton Spinning Co. Ltd","address":"No 699, Century Ave., Yancheng","country_code":"CN","os_id":"CN202019128ABRQ","country_name":"China","has_approved_claim":false,"ppe_product_types":null,"ppe_contact_phone":null,"ppe_contact_email":null,"ppe_website":null,"is_closed":null}},{"id":"CN20190912E2FPY","type":"Feature","geometry":{"type":"Point","coordinates":[120.829361,31.627896]},"properties":{"name":"Jiangsu Yuhong Textile Print Works Co. Ltd.","address":"No. 71 Yinhe Road Guli Town Changshu 215500","country_code":"CN","os_id":"CN20190912E2FPY","country_name":"China","has_approved_claim":false,"ppe_product_types":null,"ppe_contact_phone":null,"ppe_contact_email":null,"ppe_website":null,"is_closed":null}},{"id":"CN2020309MEXAGT","type":"Feature","geometry":{"type":"Point","coordinates":[120.451574,31.8241029]},"properties":{"name":"Jiangyin Fansheng Knitting Co., Ltd.","address":"No. 199, Huannan Road , Huashi Town , Jiangyin, Jiangsu, 214421, China","country_code":"CN","os_id":"CN2020309MEXAGT","country_name":"China","has_approved_claim":false,"ppe_product_types":null,"ppe_contact_phone":null,"ppe_contact_email":null,"ppe_website":null,"is_closed":null}},{"id":"CN20202687M86GY","type":"Feature","geometry":{"type":"Point","coordinates":[120.4089272,31.7570271]},"properties":{"name":"JIANGYIN HONGMEI TEXTILE&GARMENT CO., LTD","address":"No.77, Xinzhuang Road, Area B, Industrial Park, Zhutang Town, Jiangyin, Jiangsu, China","country_code":"CN","os_id":"CN20202687M86GY","country_name":"China","has_approved_claim":false,"ppe_product_types":null,"ppe_contact_phone":null,"ppe_contact_email":null,"ppe_website":null,"is_closed":null}},{"id":"CN2020009ZXN80Q","type":"Feature","geometry":{"type":"Point","coordinates":[120.4051608,31.7694287]},"properties":{"name":"Jiangyin Huxin Garment Co Ltd","address":"No8 Wanfu Road Private Industrial Park Zhutang Town Jiangyin City Wuxi China","country_code":"CN","os_id":"CN2020009ZXN80Q","country_name":"China","has_approved_claim":false,"ppe_product_types":null,"ppe_contact_phone":null,"ppe_contact_email":null,"ppe_website":null,"is_closed":null}},{"id":"CN20190831R86EX","type":"Feature","geometry":{"type":"Point","coordinates":[120.3967494,31.7250548]},"properties":{"name":"Jiangyin Mingliu Kitting Co., Ltd.","address":"No. 1 Mingliu Road, Wenlin, Zhutang Town, Jiangyin, Jiangsu","country_code":"CN","os_id":"CN20190831R86EX","country_name":"China","has_approved_claim":false,"ppe_product_types":null,"ppe_contact_phone":null,"ppe_contact_email":null,"ppe_website":null,"is_closed":null}},{"id":"CN201909610TA0H","type":"Feature","geometry":{"type":"Point","coordinates":[119.4283306,32.1305496]},"properties":{"name":"Jiangyin Shencheng Garment Co., Ltd.","address":"Building No. 1 2 & 3  No. 88 Changshan Road  Shanguan Chengdong Street JiangYin Jiangsu","country_code":"CN","os_id":"CN201909610TA0H","country_name":"China","has_approved_claim":false,"ppe_product_types":null,"ppe_contact_phone":null,"ppe_contact_email":null,"ppe_website":null,"is_closed":null}},{"id":"CN2020084ZHJ9N1","type":"Feature","geometry":{"type":"Point","coordinates":[120.4049571,31.7150338]},"properties":{"name":"JIANGYIN SHENGYU CLOTHES & PLASTIC CO.,LTD","address":"NO 8, XIANGNAN VILLAGE,WENLIN, ZHUTANG TOWN, JIANGYIN CITY, JIANGSU PROVINCE 214416, JIANGYIN","country_code":"CN","os_id":"CN2020084ZHJ9N1","country_name":"China","has_approved_claim":false,"ppe_product_types":null,"ppe_contact_phone":null,"ppe_contact_email":null,"ppe_website":null,"is_closed":null}},{"id":"CN2019083D9J3QA","type":"Feature","geometry":{"type":"Point","coordinates":[118.796605,25.03078]},"properties":{"name":"Jiatai (Fujian) Industry Co. Ltd","address":"Huidong Industrial Zone, Huian, Fujian","country_code":"CN","os_id":"CN2019083D9J3QA","country_name":"China","has_approved_claim":false,"ppe_product_types":null,"ppe_contact_phone":null,"ppe_contact_email":null,"ppe_website":null,"is_closed":null}},{"id":"CN2020148KCQKN0","type":"Feature","geometry":{"type":"Point","coordinates":[121.134569,30.750211]},"properties":{"name":"Jiaxing Brilliant Win Limited","address":"No.188 QianGangDong Road Guangchen Town Pinghu City Jiaxing Zhejiang Province","country_code":"CN","os_id":"CN2020148KCQKN0","country_name":"China","has_approved_claim":false,"ppe_product_types":null,"ppe_contact_phone":null,"ppe_contact_email":null,"ppe_website":null,"is_closed":null}},{"id":"CN2021337911Z9P","type":"Feature","geometry":{"type":"Point","coordinates":[120.66543,30.75424]},"properties":{"name":"JIAXING LONGSAINA SUITCASE CO.,LTD","address":"NO.1965 HONGGAO ROAD. JIAXING, ZHEJIANG, CHINA 314031   CN","country_code":"CN","os_id":"CN2021337911Z9P","country_name":"China","has_approved_claim":false,"ppe_product_types":null,"ppe_contact_phone":null,"ppe_contact_email":null,"ppe_website":null,"is_closed":null}},{"id":"CN20191007KVYZG","type":"Feature","geometry":{"type":"Point","coordinates":[120.754917,30.765557]},"properties":{"name":"Jiaxing Xiu Xin Knitting Co., Ltd.","address":"199 Chaohui Road, Nanhu Economic Area, Jiaxing, Zhejiang","country_code":"CN","os_id":"CN20191007KVYZG","country_name":"China","has_approved_claim":false,"ppe_product_types":null,"ppe_contact_phone":null,"ppe_contact_email":null,"ppe_website":null,"is_closed":null}},{"id":"CN2019262BHCF64","type":"Feature","geometry":{"type":"Point","coordinates":[120.946263,30.526435]},"properties":{"name":"JIAXING YONGSHENG GARMENT CO.,LTD","address":"QIJIAJI DOWNTOWN,HAIYAN ,JIAXING,ZHEJIANG JIAXING","country_code":"CN","os_id":"CN2019262BHCF64","country_name":"China","has_approved_claim":false,"ppe_product_types":null,"ppe_contact_phone":null,"ppe_contact_email":null,"ppe_website":null,"is_closed":null}},{"id":"CN2019083ECJE35","type":"Feature","geometry":{"type":"Point","coordinates":[125.1435053,42.8879245]},"properties":{"name":"Jilin Province Northeast Socks Industry Park Hosiery Knitting Co Ltd","address":"Building E4-2 Northeast Socks Textile Industry Park Economic Development Zone Liaoyuan City Jilin 136200","country_code":"CN","os_id":"CN2019083ECJE35","country_name":"China","has_approved_claim":false,"ppe_product_types":null,"ppe_contact_phone":null,"ppe_contact_email":null,"ppe_website":null,"is_closed":null}},{"id":"CN202118067Z9QB","type":"Feature","geometry":{"type":"Point","coordinates":[119.8760819,29.2188204]},"properties":{"name":"Jinhua Huiyun Ornaments Co.,Ltd","address":"No.1789 JinGang Road,JinDong Economic Development\nDistrict, JINHUA","country_code":"CN","os_id":"CN202118067Z9QB","country_name":"China","has_approved_claim":false,"ppe_product_types":null,"ppe_contact_phone":null,"ppe_contact_email":null,"ppe_website":null,"is_closed":null}},{"id":"CN2019083TS2G9P","type":"Feature","geometry":{"type":"Point","coordinates":[116.4949316,35.718792]},"properties":{"name":"Jining Aisi Garment Co.Ltd.","address":"Shiji Middle Road, Economic Development Zone 272500 Wenshang Jining Shandong","country_code":"CN","os_id":"CN2019083TS2G9P","country_name":"China","has_approved_claim":false,"ppe_product_types":null,"ppe_contact_phone":null,"ppe_contact_email":null,"ppe_website":null,"is_closed":null}},{"id":"CN2020339XBF601","type":"Feature","geometry":{"type":"Point","coordinates":[117.9249002,26.4836842]},"properties":{"name":"JINJIANG FANNY GARMENT CO.,LTD","address":"No. 8, Fenghua Road,Yinglin Industrial Zone,Yinglin Town, JinjiangCity, Fujian Province,China.","country_code":"CN","os_id":"CN2020339XBF601","country_name":"China","has_approved_claim":false,"ppe_product_types":null,"ppe_contact_phone":null,"ppe_contact_email":null,"ppe_website":null,"is_closed":null}},{"id":"CN2020010XBMEHH","type":"Feature","geometry":{"type":"Point","coordinates":[118.578996,24.865777]},"properties":{"name":"Jinjiang Rongqing Shoes Co., Ltd.","address":"Chidian Industrial  Zone   Jinjiang  China","country_code":"CN","os_id":"CN2020010XBMEHH","country_name":"China","has_approved_claim":false,"ppe_product_types":null,"ppe_contact_phone":null,"ppe_contact_email":null,"ppe_website":null,"is_closed":null}}]