[{"id":"ID2020053EDWTBN","type":"Feature","geometry":{"type":"Point","coordinates":[107.138563,-6.341437]},"properties":{"name":"Pt. Daehwa Leather Lestari","address":"BEKASI INTERNATIONAL INDUSTRIAL ESTATE BLOCK C.10 NO.06 LIPPO\nCIKARANG, CIBATU, CIKARANG SELATAN Bekasi West Java","country_code":"ID","os_id":"ID2020053EDWTBN","country_name":"Indonesia","has_approved_claim":true,"ppe_product_types":null,"ppe_contact_phone":null,"ppe_contact_email":null,"ppe_website":null,"is_closed":null}},{"id":"ID2019097E6RJ8F","type":"Feature","geometry":{"type":"Point","coordinates":[107.6969462,-6.5296224]},"properties":{"name":"PT. DAENONG GLOBAL","address":"JALAN RAYA SADANG KM. 138, DUSUN CIKADU, DESA/KELURAHAN MANYETI, KEC. DAWUAN, SUBANG, JAWA BARAT, INDONESIA, 41271","country_code":"ID","os_id":"ID2019097E6RJ8F","country_name":"Indonesia","has_approved_claim":false,"ppe_product_types":null,"ppe_contact_phone":null,"ppe_contact_email":null,"ppe_website":null,"is_closed":null}},{"id":"ID2019108NBMKAK","type":"Feature","geometry":{"type":"Point","coordinates":[110.9200771,-7.4922371]},"properties":{"name":"PT Eco Laundry Hijau Indonesia","address":"Jl. Raya Solo-Sragen Km. 20, 8 Karangwaru RT.28A/007, Ds Krikilan, Kec. Masaran, Sragen Solo Jawa Tengah Indonesia","country_code":"ID","os_id":"ID2019108NBMKAK","country_name":"Indonesia","has_approved_claim":false,"ppe_product_types":null,"ppe_contact_phone":null,"ppe_contact_email":null,"ppe_website":null,"is_closed":null}},{"id":"ID20190862XAK58","type":"Feature","geometry":{"type":"Point","coordinates":[106.9472294,-6.4115589]},"properties":{"name":"Pt Fotexco Busana International","address":"Jl. Raya Cikuda Kp. Cikuda Rt 003 Rw. 006, Desa Wanaherang Kec. Cunung Putri Bog, 16965, Bogor, Indonesia","country_code":"ID","os_id":"ID20190862XAK58","country_name":"Indonesia","has_approved_claim":false,"ppe_product_types":null,"ppe_contact_phone":null,"ppe_contact_email":null,"ppe_website":null,"is_closed":null}},{"id":"ID2019143YJECW7","type":"Feature","geometry":{"type":"Point","coordinates":[108.2082463,-6.7519048]},"properties":{"name":"PT Gistex","address":"Jl Raya Bandung Cirebon Desa Sinarjati RT 01 RW01 Dawuan Majalengka 45453 Jawa Barat Indonesia","country_code":"ID","os_id":"ID2019143YJECW7","country_name":"Indonesia","has_approved_claim":false,"ppe_product_types":null,"ppe_contact_phone":null,"ppe_contact_email":null,"ppe_website":null,"is_closed":null}},{"id":"ID2019100KKNYD0","type":"Feature","geometry":{"type":"Point","coordinates":[110.4290826,-6.9483384]},"properties":{"name":"PT. Glory Industrial Semarang II","address":"Jl. Coaster No. 8 Blok B9-10, B25-31TEPZ Tanjungmas, Semarang, Central Java, Semarang, Jawa Tengah","country_code":"ID","os_id":"ID2019100KKNYD0","country_name":"Indonesia","has_approved_claim":false,"ppe_product_types":null,"ppe_contact_phone":null,"ppe_contact_email":null,"ppe_website":null,"is_closed":null}},{"id":"ID201908530HZHA","type":"Feature","geometry":{"type":"Point","coordinates":[106.8349207,-6.9780772]},"properties":{"name":"PT. Glostar Indonesia","address":"Jln. Pelabuhan II Km. 14,5 Kp.Sampora Rt.003 Rw.005 Ds.Bojong Kec. Cikembar Kab. Sukabumi, Jawa Barat – Indonesia","country_code":"ID","os_id":"ID201908530HZHA","country_name":"Indonesia","has_approved_claim":true,"ppe_product_types":null,"ppe_contact_phone":null,"ppe_contact_email":null,"ppe_website":null,"is_closed":null}},{"id":"ID20203304JBFEN","type":"Feature","geometry":{"type":"Point","coordinates":[108.2705262,-6.7806188]},"properties":{"name":"PT. Harapan Global Apparel","address":"JL Raya Veteran Dusun 04 RT 003/ RW 007 Sukaraja Wetan Jatiwangi Majalengka  West Java45454","country_code":"ID","os_id":"ID20203304JBFEN","country_name":"Indonesia","has_approved_claim":false,"ppe_product_types":null,"ppe_contact_phone":null,"ppe_contact_email":null,"ppe_website":null,"is_closed":null}},{"id":"ID201929485E1SX","type":"Feature","geometry":{"type":"Point","coordinates":[110.474312,-7.183063]},"properties":{"name":"Pt. Hop Lun Indonesia","address":"005 Desa Klepu, Kec Pringapus Kabupaten  Semarang","country_code":"ID","os_id":"ID201929485E1SX","country_name":"Indonesia","has_approved_claim":false,"ppe_product_types":null,"ppe_contact_phone":null,"ppe_contact_email":null,"ppe_website":null,"is_closed":null}},{"id":"ID20190837BYVS8","type":"Feature","geometry":{"type":"Point","coordinates":[110.8227058,-7.6202257]},"properties":{"name":"PT. Kanaan Global Indonesia","address":"Jl. Ronggolawe Rt.02/18 Kel. Telukan Kec. Grogol Kab. Sukoharjo Jawa Tengah","country_code":"ID","os_id":"ID20190837BYVS8","country_name":"Indonesia","has_approved_claim":false,"ppe_product_types":null,"ppe_contact_phone":null,"ppe_contact_email":null,"ppe_website":null,"is_closed":null}},{"id":"ID2019085WD59ZW","type":"Feature","geometry":{"type":"Point","coordinates":[106.3221779,-6.1597372]},"properties":{"name":"PT. Nikomas Gemilang","address":"Jl. Raya Serang No.KM.71, Tambak, Kec. Kibin, Serang, Banten, Indonesia","country_code":"ID","os_id":"ID2019085WD59ZW","country_name":"Indonesia","has_approved_claim":true,"ppe_product_types":null,"ppe_contact_phone":null,"ppe_contact_email":null,"ppe_website":null,"is_closed":null}},{"id":"ID2019083CEWGCP","type":"Feature","geometry":{"type":"Point","coordinates":[110.6317907,-7.5544949]},"properties":{"name":"PT Pan Brothers Tbk Fty 9","address":"Dk. Butuh Rt.01, Rw.02, Ds. Butuh, Kec. Mojosongo, Kab. Boyolali, Jawa Tengah 57322","country_code":"ID","os_id":"ID2019083CEWGCP","country_name":"Indonesia","has_approved_claim":false,"ppe_product_types":null,"ppe_contact_phone":null,"ppe_contact_email":null,"ppe_website":null,"is_closed":null}},{"id":"ID2020084AFYMKV","type":"Feature","geometry":{"type":"Point","coordinates":[110.3286527,-6.9690453]},"properties":{"name":"PT PAN PACIFIC JAKARTA CABANG SEMARANG","address":"KAWASAN BERIKAT RUKTIMUKTI BAWANA, JL.RAYA SEMARANG KENDAL KM 12/B 52014, SEMARANG","country_code":"ID","os_id":"ID2020084AFYMKV","country_name":"Indonesia","has_approved_claim":false,"ppe_product_types":null,"ppe_contact_phone":null,"ppe_contact_email":null,"ppe_website":null,"is_closed":null}},{"id":"ID2019143DDWDZ3","type":"Feature","geometry":{"type":"Point","coordinates":[106.891188,-6.493313]},"properties":{"name":"PT Taitat Putra Rejeki","address":"JI Industri No.54  Tarikolot Citeureup Bogor 16180 Jawa Barat Indonesia","country_code":"ID","os_id":"ID2019143DDWDZ3","country_name":"Indonesia","has_approved_claim":false,"ppe_product_types":null,"ppe_contact_phone":null,"ppe_contact_email":null,"ppe_website":null,"is_closed":null}},{"id":"ID2019143ZKAKVB","type":"Feature","geometry":{"type":"Point","coordinates":[106.4952438,-6.2173658]},"properties":{"name":"PT Tuntex Garment Indonesia - Cikupa 1","address":"Jl. Raya Serang Km 18.8 Desa Bojong Kecamatan Cikupa Kabupaten Tangerang 15710 Banten Indonesia","country_code":"ID","os_id":"ID2019143ZKAKVB","country_name":"Indonesia","has_approved_claim":false,"ppe_product_types":null,"ppe_contact_phone":null,"ppe_contact_email":null,"ppe_website":null,"is_closed":null}},{"id":"ID2019083505Z9P","type":"Feature","geometry":{"type":"Point","coordinates":[107.412937,-6.536312]},"properties":{"name":"PT Win Textile","address":"Jl Lr. H Juanda Rt/RW:015/04 Ds. Cilegong Kec. Jatiluhur, Purwakarta-Jawa Barat","country_code":"ID","os_id":"ID2019083505Z9P","country_name":"Indonesia","has_approved_claim":false,"ppe_product_types":null,"ppe_contact_phone":null,"ppe_contact_email":null,"ppe_website":null,"is_closed":null}},{"id":"BD20200097FXC6R","type":"Feature","geometry":{"type":"Point","coordinates":[90.3960275,23.8668905]},"properties":{"name":"Purbachal Apparel","address":"South Panjora Ward No 05 PO Nagori Kali Bangladesh","country_code":"BD","os_id":"BD20200097FXC6R","country_name":"Bangladesh","has_approved_claim":false,"ppe_product_types":null,"ppe_contact_phone":null,"ppe_contact_email":null,"ppe_website":null,"is_closed":null}},{"id":"CN2020085Q8BM11","type":"Feature","geometry":{"type":"Point","coordinates":[119.1355911,25.4700419]},"properties":{"name":"PUTIAN CITY YONGFENG FOOTWEAR CO LTD","address":"TANGTOU HUANGSHI TOWN LICHENG DISTRICT PUTIAN CITY PUTIAN FUJIAN CHINA 351144","country_code":"CN","os_id":"CN2020085Q8BM11","country_name":"China","has_approved_claim":false,"ppe_product_types":null,"ppe_contact_phone":null,"ppe_contact_email":null,"ppe_website":null,"is_closed":null}},{"id":"BR20212530Y3ZPS","type":"Feature","geometry":{"type":"Point","coordinates":[-49.51920920000001,-27.0552753]},"properties":{"name":"QUELI CRISTINA CAVICHIOLLI CONFECCOES","address":"RUA PADRE FRANZ EIGMANN, 119, CENTRO, Ibirama","country_code":"BR","os_id":"BR20212530Y3ZPS","country_name":"Brazil","has_approved_claim":false,"ppe_product_types":null,"ppe_contact_phone":null,"ppe_contact_email":null,"ppe_website":null,"is_closed":null}},{"id":"IN2019310CFDPZ4","type":"Feature","geometry":{"type":"Point","coordinates":[72.8456399,20.215691]},"properties":{"name":"Radium Creation Limited","address":"Survey No. 77 & 169/1/3 - Behind Hindustan Pencil Factory, Village Tumb, Tal, Umbergaon, District Valsad, Gujarat","country_code":"IN","os_id":"IN2019310CFDPZ4","country_name":"India","has_approved_claim":false,"ppe_product_types":null,"ppe_contact_phone":null,"ppe_contact_email":null,"ppe_website":null,"is_closed":null}},{"id":"IN2020035KDVT5X","type":"Feature","geometry":{"type":"Point","coordinates":[77.3683319,28.6075627]},"properties":{"name":"Radnik Exports C-35","address":"C-35 Sector 59 (blank) (blank) Noida 201301 Uttar Pradesh India","country_code":"IN","os_id":"IN2020035KDVT5X","country_name":"India","has_approved_claim":false,"ppe_product_types":null,"ppe_contact_phone":null,"ppe_contact_email":null,"ppe_website":null,"is_closed":null}},{"id":"BD20200661Y2E27","type":"Feature","geometry":{"type":"Point","coordinates":[90.4773694,23.6152708]},"properties":{"name":"Rahimaaziz Knitspin Ltd","address":"Enayetnagar, Bholail, Futullah Narayanganj  Dhaka","country_code":"BD","os_id":"BD20200661Y2E27","country_name":"Bangladesh","has_approved_claim":false,"ppe_product_types":null,"ppe_contact_phone":null,"ppe_contact_email":null,"ppe_website":null,"is_closed":null}},{"id":"BD2020053ERGCE2","type":"Feature","geometry":{"type":"Point","coordinates":[90.3864044,24.3068626]},"properties":{"name":"Raidha Collections Ltd","address":"Raidha Collections Ltd,Zamirdia,Valuka, Mymensingh,Bangladesh. Mymensingh Dhaka 2240","country_code":"BD","os_id":"BD2020053ERGCE2","country_name":"Bangladesh","has_approved_claim":false,"ppe_product_types":null,"ppe_contact_phone":null,"ppe_contact_email":null,"ppe_website":null,"is_closed":null}},{"id":"PK2019172RMRKHS","type":"Feature","geometry":{"type":"Point","coordinates":[67.2691454,24.8496512]},"properties":{"name":"Rainbow Hosiery (Pvt.) Ltd.","address":"Plot No. 88, Sector 16 B Malik Anwar Goth,\nNorth Karachi Industrial Area, Karachi","country_code":"PK","os_id":"PK2019172RMRKHS","country_name":"Pakistan","has_approved_claim":false,"ppe_product_types":null,"ppe_contact_phone":null,"ppe_contact_email":null,"ppe_website":null,"is_closed":null}},{"id":"PK202122256Q9EZ","type":"Feature","geometry":{"type":"Point","coordinates":[67.23433,24.8654434]},"properties":{"name":"Rajby Textiles (Pvt) Ltd.","address":"Plot No. 54-55, Kohi Goth, Deh Landhi, Bin Qasim Town, Karachi, 75020","country_code":"PK","os_id":"PK202122256Q9EZ","country_name":"Pakistan","has_approved_claim":true,"ppe_product_types":null,"ppe_contact_phone":null,"ppe_contact_email":null,"ppe_website":null,"is_closed":null}},{"id":"TR2019083ZGAFEK","type":"Feature","geometry":{"type":"Point","coordinates":[28.626127,41.049418]},"properties":{"name":"Reha Tekstil Dis Tic ve San. A.S.","address":"Cakmakli Mh. Katip Sk., 1, Kirac 34500 Büyükcekmece Istanbul Istanbul","country_code":"TR","os_id":"TR2019083ZGAFEK","country_name":"Türkiye","has_approved_claim":false,"ppe_product_types":null,"ppe_contact_phone":null,"ppe_contact_email":null,"ppe_website":null,"is_closed":null}},{"id":"BD2020021T8ZRRY","type":"Feature","geometry":{"type":"Point","coordinates":[91.7622643,22.4293328]},"properties":{"name":"Renown Apparels Ltd.","address":"Bhatiary Link Road ( South Side ) Barodighir Par, Hathazary 4335 Chittagong","country_code":"BD","os_id":"BD2020021T8ZRRY","country_name":"Bangladesh","has_approved_claim":false,"ppe_product_types":null,"ppe_contact_phone":null,"ppe_contact_email":null,"ppe_website":null,"is_closed":null}},{"id":"BR20190861X19G6","type":"Feature","geometry":{"type":"Point","coordinates":[-49.609408,-27.0414546]},"properties":{"name":"Requisito Basico Confeccoes Ltda","address":"R. MiradoR.N§ 1220, 89150000, Presidente GetЈlio, Brazil","country_code":"BR","os_id":"BR20190861X19G6","country_name":"Brazil","has_approved_claim":false,"ppe_product_types":null,"ppe_contact_phone":null,"ppe_contact_email":null,"ppe_website":null,"is_closed":null}},{"id":"BR2019086GPAPZK","type":"Feature","geometry":{"type":"Point","coordinates":[-49.0574687,-26.881002]},"properties":{"name":"Retru Talhações Ltda","address":"R. Maria De Lurdes Prim, N. 120 Blumenau  08905-540","country_code":"BR","os_id":"BR2019086GPAPZK","country_name":"Brazil","has_approved_claim":false,"ppe_product_types":null,"ppe_contact_phone":null,"ppe_contact_email":null,"ppe_website":null,"is_closed":null}},{"id":"IN2019175HSBRYV","type":"Feature","geometry":{"type":"Point","coordinates":[77.403928,11.1310553]},"properties":{"name":"Rhythm Knit India P Ltd","address":"No.3 / 327, B, Kulathupalayam Pirivu, S.\nPeriyapalayam Tirupur Tamil Nadu 641607","country_code":"IN","os_id":"IN2019175HSBRYV","country_name":"India","has_approved_claim":false,"ppe_product_types":null,"ppe_contact_phone":null,"ppe_contact_email":null,"ppe_website":null,"is_closed":null}},{"id":"IN20221654E76HS","type":"Feature","geometry":{"type":"Point","coordinates":[76.9334073,28.3682945]},"properties":{"name":"Richa Global Exports Pvt Ltd (Gurgaon)","address":"Plot 166, Sector 5, Imt Manesar","country_code":"IN","os_id":"IN20221654E76HS","country_name":"India","has_approved_claim":false,"ppe_product_types":null,"ppe_contact_phone":null,"ppe_contact_email":null,"ppe_website":null,"is_closed":null}},{"id":"PT2019259FT0CXJ","type":"Feature","geometry":{"type":"Point","coordinates":[-8.42867,41.428154]},"properties":{"name":"RIOPELE TEXTEIS, SA","address":"RUA DE RIO PELE 946 - POUSADA DE SARAMAGOS - 4770-405 - FAMALICAO","country_code":"PT","os_id":"PT2019259FT0CXJ","country_name":"Portugal","has_approved_claim":false,"ppe_product_types":null,"ppe_contact_phone":null,"ppe_contact_email":null,"ppe_website":null,"is_closed":null}},{"id":"BR2019086RXYW52","type":"Feature","geometry":{"type":"Point","coordinates":[-49.1130186,-26.8678185]},"properties":{"name":"Rk Acabamento So Vestuario Ltda","address":"R. Luiza Lucas, 336, 89065770, Blumenau, Brazil","country_code":"BR","os_id":"BR2019086RXYW52","country_name":"Brazil","has_approved_claim":false,"ppe_product_types":null,"ppe_contact_phone":null,"ppe_contact_email":null,"ppe_website":null,"is_closed":null}},{"id":"GB2020287JPHVYG","type":"Feature","geometry":{"type":"Point","coordinates":[-4.5114311,55.6805355]},"properties":{"name":"Robert Mackie of Scotland Ltd","address":"Holm Mill, Stewarton, Ayrshire, Scotland, KA3 5HT, UNITED KINGDOM","country_code":"GB","os_id":"GB2020287JPHVYG","country_name":"United Kingdom","has_approved_claim":true,"ppe_product_types":null,"ppe_contact_phone":null,"ppe_contact_email":null,"ppe_website":null,"is_closed":null}},{"id":"BR2021127BKWA8F","type":"Feature","geometry":{"type":"Point","coordinates":[-49.1481748,-26.9089896]},"properties":{"name":"ROGERIO VEBER","address":"GUILHERME POERNER, 1811, PASSO MANSO, BLUMENAU","country_code":"BR","os_id":"BR2021127BKWA8F","country_name":"Brazil","has_approved_claim":false,"ppe_product_types":null,"ppe_contact_phone":null,"ppe_contact_email":null,"ppe_website":null,"is_closed":null}},{"id":"BR202125050S615","type":"Feature","geometry":{"type":"Point","coordinates":[-48.9155381,-26.7155754]},"properties":{"name":"ROVITEX - IND. E COM. DE MALHAS LTDA","address":"AVENIDA MARIA MARANGONI-391,DOM BOSCO LUIZ ALVES","country_code":"BR","os_id":"BR202125050S615","country_name":"Brazil","has_approved_claim":false,"ppe_product_types":null,"ppe_contact_phone":null,"ppe_contact_email":null,"ppe_website":null,"is_closed":null}},{"id":"IN20202041RQAWQ","type":"Feature","geometry":{"type":"Point","coordinates":[77.1276629,28.8747224]},"properties":{"name":"SAAV INC - KUNDLI","address":"PLOT NO111,PHASE1,HSIIDC,KUNDLI DIST SONIPAT,HARYANA 131028 HAIYAN","country_code":"IN","os_id":"IN20202041RQAWQ","country_name":"India","has_approved_claim":false,"ppe_product_types":null,"ppe_contact_phone":null,"ppe_contact_email":null,"ppe_website":null,"is_closed":null}},{"id":"KH201908323DFZA","type":"Feature","geometry":{"type":"Point","coordinates":[104.5189214,11.475524]},"properties":{"name":"Sabrina (Cambodia) Garment Manufacturing Corp.","address":"National Rd. No.4 Phum Trapaing Reussey Khum Sambo Samrong Torng District Kampong Spoe","country_code":"KH","os_id":"KH201908323DFZA","country_name":"Cambodia","has_approved_claim":false,"ppe_product_types":null,"ppe_contact_phone":null,"ppe_contact_email":null,"ppe_website":null,"is_closed":null}},{"id":"TR2019172EF24RQ","type":"Feature","geometry":{"type":"Point","coordinates":[28.822739,41.0299539]},"properties":{"name":"Sakon Tekstil Sanayi Ve Diş Ticaret Ltd Şti","address":"Bağlar Mah. Osmanpaşa Cad. No:19 Kat:1 Güneşli Bağcilar Istanbul 34200 Marmara","country_code":"TR","os_id":"TR2019172EF24RQ","country_name":"Türkiye","has_approved_claim":false,"ppe_product_types":null,"ppe_contact_phone":null,"ppe_contact_email":null,"ppe_website":null,"is_closed":null}},{"id":"BD2020221P3QGN4","type":"Feature","geometry":{"type":"Point","coordinates":[90.4833001,23.6424629]},"properties":{"name":"Sakura Dyeing & Garments Ltd.","address":"(1st Floor), Sibu Market, Sibu Market-Hajiganj Road, Lamapara, Kutubail, Fatullah, Narayanganj-1420","country_code":"BD","os_id":"BD2020221P3QGN4","country_name":"Bangladesh","has_approved_claim":false,"ppe_product_types":null,"ppe_contact_phone":null,"ppe_contact_email":null,"ppe_website":null,"is_closed":null}},{"id":"BD20200538BHKNY","type":"Feature","geometry":{"type":"Point","coordinates":[90.5029522,23.6196308]},"properties":{"name":"Sanjana Fabrics Limited","address":"Mahana, Duptara, Rupgonj, Narayangonj Narayanganj Dhaka 1462","country_code":"BD","os_id":"BD20200538BHKNY","country_name":"Bangladesh","has_approved_claim":false,"ppe_product_types":null,"ppe_contact_phone":null,"ppe_contact_email":null,"ppe_website":null,"is_closed":null}},{"id":"BD2019085YCXHNC","type":"Feature","geometry":{"type":"Point","coordinates":[90.3932051,23.9186405]},"properties":{"name":"Saturn Textiles Ltd.","address":"13/1, Abdus Sattar Master Road,West Gazipura, Tongi, Gazipur","country_code":"BD","os_id":"BD2019085YCXHNC","country_name":"Bangladesh","has_approved_claim":false,"ppe_product_types":null,"ppe_contact_phone":null,"ppe_contact_email":null,"ppe_website":null,"is_closed":null}},{"id":"BD2020053SN8A2M","type":"Feature","geometry":{"type":"Point","coordinates":[90.27326210000001,23.9501366]},"properties":{"name":"SAVAR DYEING AND FINISHING IND. LTD.","address":"Plot # 4 ( Half ) - 8, 12 (Half) - 16, Dhaka Export Processing Zone, Ganakbari, Ashulia, Savar. Baipail Dhaka 1349","country_code":"BD","os_id":"BD2020053SN8A2M","country_name":"Bangladesh","has_approved_claim":false,"ppe_product_types":null,"ppe_contact_phone":null,"ppe_contact_email":null,"ppe_website":null,"is_closed":null}},{"id":"BD2019248RNGC2B","type":"Feature","geometry":{"type":"Point","coordinates":[90.3800588,23.91554]},"properties":{"name":"Seasons Dresses Ltd.","address":"S.K. Tower, (3rd Floor), Kha Para Road, Kha Para, Sataish, Tongi, Gazipur-1711","country_code":"BD","os_id":"BD2019248RNGC2B","country_name":"Bangladesh","has_approved_claim":false,"ppe_product_types":null,"ppe_contact_phone":null,"ppe_contact_email":null,"ppe_website":null,"is_closed":null}},{"id":"VN2019085YXZS2J","type":"Feature","geometry":{"type":"Point","coordinates":[105.899812,20.610437]},"properties":{"name":"Seyang Corporation Vietnam","address":"Plot No.54 -Nhat Tan Industry Complex, Kim Bang District Nhat Tan","country_code":"VN","os_id":"VN2019085YXZS2J","country_name":"Vietnam","has_approved_claim":false,"ppe_product_types":null,"ppe_contact_phone":null,"ppe_contact_email":null,"ppe_website":null,"is_closed":null}},{"id":"IN201908375N2F0","type":"Feature","geometry":{"type":"Point","coordinates":[77.4047787,28.5331328]},"properties":{"name":"SHAHI EXPORTS PVT. LTD. A-7","address":"A-7, Hosiery Complex, Phase-II 201305 Gautam Buddha Nagar Noida Uttar Pradesh","country_code":"IN","os_id":"IN201908375N2F0","country_name":"India","has_approved_claim":false,"ppe_product_types":null,"ppe_contact_phone":null,"ppe_contact_email":null,"ppe_website":null,"is_closed":null}},{"id":"IN2020053ZKAB7H","type":"Feature","geometry":{"type":"Point","coordinates":[77.592423,12.9164792]},"properties":{"name":"Shahi Exports Pvt Ltd-Unit 12","address":"37/1 B, 43/2, 43/3 AREJKERE VILLAGE, BANNERGHATTA MAIN ROAD, BEGUR HOBLI, Bengaluru, Karnataka, India 560076","country_code":"IN","os_id":"IN2020053ZKAB7H","country_name":"India","has_approved_claim":false,"ppe_product_types":null,"ppe_contact_phone":null,"ppe_contact_email":null,"ppe_website":null,"is_closed":null}},{"id":"IN2019181CX6WA2","type":"Feature","geometry":{"type":"Point","coordinates":[77.525828,13.024538]},"properties":{"name":"SHAHI EXPORTS PVT LTD - UNIT 28","address":"226 / 227, 8TH MAIN, 3RD PHASE, KIADB PEENYA INDUSTRIAL AREA- 560068 BANGALORE (KARNATAKA)","country_code":"IN","os_id":"IN2019181CX6WA2","country_name":"India","has_approved_claim":false,"ppe_product_types":null,"ppe_contact_phone":null,"ppe_contact_email":null,"ppe_website":null,"is_closed":null}},{"id":"CN2021239NGV5FR","type":"Feature","geometry":{"type":"Point","coordinates":[118.6200023,35.7564505]},"properties":{"name":"SHANDONG HENGTAI TEXTILE","address":"WEST OF TENGFEI ROAD, ECONOMIC DEVELOPMENT ZONE, LINYI","country_code":"CN","os_id":"CN2021239NGV5FR","country_name":"China","has_approved_claim":false,"ppe_product_types":null,"ppe_contact_phone":null,"ppe_contact_email":null,"ppe_website":null,"is_closed":null}},{"id":"CN2019086XEV4B0","type":"Feature","geometry":{"type":"Point","coordinates":[121.0909239,31.2148359]},"properties":{"name":"Shanghai Gausha Accessories Co. Ltd","address":"Qingzhao Highway, Qingpu, 201712, Shanghai, China","country_code":"CN","os_id":"CN2019086XEV4B0","country_name":"China","has_approved_claim":false,"ppe_product_types":null,"ppe_contact_phone":null,"ppe_contact_email":null,"ppe_website":null,"is_closed":null}}]