[{"id":"IN20210296KKXP6","type":"Feature","geometry":{"type":"Point","coordinates":[77.518851,13.6092656]},"properties":{"name":"Silver Spark Apparel Ltd. (Unit 2)","address":"4/2A, 2B, 5/3A, 3B Gundapura Village, Kasaba Hobli, Gowribidanur Taluk, Chikkaballapur District - 561 208 Kasaba Hobli Chikkaballapur Karnataka","country_code":"IN","os_id":"IN20210296KKXP6","country_name":"India","has_approved_claim":false,"ppe_product_types":null,"ppe_contact_phone":null,"ppe_contact_email":null,"ppe_website":null,"is_closed":null}},{"id":"BD20211868G2YH3","type":"Feature","geometry":{"type":"Point","coordinates":[90.52460080000002,23.6776056]},"properties":{"name":"Simba Fashions Ltd (Unit - 3)","address":"Plot. 124, Adamjee EPZ, Siddirgonj, Narayangonj","country_code":"BD","os_id":"BD20211868G2YH3","country_name":"Bangladesh","has_approved_claim":false,"ppe_product_types":null,"ppe_contact_phone":null,"ppe_contact_email":null,"ppe_website":null,"is_closed":null}},{"id":"BD2020053CKCGZC","type":"Feature","geometry":{"type":"Point","coordinates":[90.5529666,23.8054329]},"properties":{"name":"SIM FABRICS LTD.","address":"Thakurbariteac, Masumabad, Bhulta, Rupganj, Narayanganj.  Dhaka 1462","country_code":"BD","os_id":"BD2020053CKCGZC","country_name":"Bangladesh","has_approved_claim":false,"ppe_product_types":null,"ppe_contact_phone":null,"ppe_contact_email":null,"ppe_website":null,"is_closed":null}},{"id":"BD20202198PXFKK","type":"Feature","geometry":{"type":"Point","coordinates":[90.337991,23.8521138]},"properties":{"name":"Simtex Ltd.","address":"Khagan, Birulia, Savar, Dhaka, 1341","country_code":"BD","os_id":"BD20202198PXFKK","country_name":"Bangladesh","has_approved_claim":false,"ppe_product_types":null,"ppe_contact_phone":null,"ppe_contact_email":null,"ppe_website":null,"is_closed":null}},{"id":"TH2019143X4VNYZ","type":"Feature","geometry":{"type":"Point","coordinates":[100.3139379,13.5632214]},"properties":{"name":"Sincerely Screen Co., Ltd.","address":"30/138 Khok-Kham  Muang 74000 Samut Sakhon Thailand","country_code":"TH","os_id":"TH2019143X4VNYZ","country_name":"Thailand","has_approved_claim":false,"ppe_product_types":null,"ppe_contact_phone":null,"ppe_contact_email":null,"ppe_website":null,"is_closed":null}},{"id":"BR2021253X5PTK8","type":"Feature","geometry":{"type":"Point","coordinates":[-48.56495109999999,-27.6844539]},"properties":{"name":"SINEIA MOHR FLORENCIO","address":"RUA SERVIDAO SANTA BARBARA, 104, CENTRO, Ituporanga","country_code":"BR","os_id":"BR2021253X5PTK8","country_name":"Brazil","has_approved_claim":false,"ppe_product_types":null,"ppe_contact_phone":null,"ppe_contact_email":null,"ppe_website":null,"is_closed":null}},{"id":"BD202006655PM7H","type":"Feature","geometry":{"type":"Point","coordinates":[90.3663361,23.835125]},"properties":{"name":"Sirajgonj Fashions Limited","address":"101/1/A Barabagh, Mirpur-2 Dhaka  Dhaka","country_code":"BD","os_id":"BD202006655PM7H","country_name":"Bangladesh","has_approved_claim":false,"ppe_product_types":null,"ppe_contact_phone":null,"ppe_contact_email":null,"ppe_website":null,"is_closed":null}},{"id":"IN2020351NR89XZ","type":"Feature","geometry":{"type":"Point","coordinates":[77.5247437,28.5101692]},"properties":{"name":"SKYLARK DYEING PVT LTD","address":"B-2/14 , SITE B SURAJPUR INDUSTRIAL AREA GREATER NOIDA 201301","country_code":"IN","os_id":"IN2020351NR89XZ","country_name":"India","has_approved_claim":false,"ppe_product_types":null,"ppe_contact_phone":null,"ppe_contact_email":null,"ppe_website":null,"is_closed":null}},{"id":"TR2019266S3E60G","type":"Feature","geometry":{"type":"Point","coordinates":[37.50036,41.031231]},"properties":{"name":"SLN TEKSTIL VE MODA SAN. TIC. A.S. (KDZ)","address":"Fatsa OSB. M. AKIF BESIK Sokak. No:7 FatsaOrdu","country_code":"TR","os_id":"TR2019266S3E60G","country_name":"Türkiye","has_approved_claim":false,"ppe_product_types":null,"ppe_contact_phone":null,"ppe_contact_email":null,"ppe_website":null,"is_closed":null}},{"id":"BR20212605B39JF","type":"Feature","geometry":{"type":"Point","coordinates":[-47.788423,-23.2131605]},"properties":{"name":"SMART-LAV CONFECÇÕES E LAVANDERIA LTDA.","address":"EST BAIRRO BARREIRO RICO, SN, : CHACARA SAO JOAO; -\nCerquilho, SP","country_code":"BR","os_id":"BR20212605B39JF","country_name":"Brazil","has_approved_claim":false,"ppe_product_types":null,"ppe_contact_phone":null,"ppe_contact_email":null,"ppe_website":null,"is_closed":null}},{"id":"PK2020351R4051A","type":"Feature","geometry":{"type":"Point","coordinates":[66.992844,24.9053056]},"properties":{"name":"S. M. DENIM MILLS","address":"D-11 SOUTH AVENUE S.I.T.E  KARACHI 75700","country_code":"PK","os_id":"PK2020351R4051A","country_name":"Pakistan","has_approved_claim":false,"ppe_product_types":null,"ppe_contact_phone":null,"ppe_contact_email":null,"ppe_website":null,"is_closed":null}},{"id":"BD2021006VN1RF9","type":"Feature","geometry":{"type":"Point","coordinates":[90.52460080000002,23.6776056]},"properties":{"name":"SML Packaging Solutions Bangladesh Limited","address":"SFB # 2. Adamjee Export Processing Zone, Shiddhirganj, Narayanganj","country_code":"BD","os_id":"BD2021006VN1RF9","country_name":"Bangladesh","has_approved_claim":false,"ppe_product_types":null,"ppe_contact_phone":null,"ppe_contact_email":null,"ppe_website":null,"is_closed":null}},{"id":"TR2019091EWW1AD","type":"Feature","geometry":{"type":"Point","coordinates":[29.2056721,38.673644]},"properties":{"name":"SMS Konfeksiyon Tekstil ve Tic. A.S.","address":"Tekstil Organize Sanayi Bölgesi (OSB) Mah. 101. Cad. 113 Usak 64000","country_code":"TR","os_id":"TR2019091EWW1AD","country_name":"Türkiye","has_approved_claim":false,"ppe_product_types":null,"ppe_contact_phone":null,"ppe_contact_email":null,"ppe_website":null,"is_closed":null}},{"id":"RO2020268PCAW1Y","type":"Feature","geometry":{"type":"Point","coordinates":[22.8225668,47.781017]},"properties":{"name":"SMS ROMANIA S.R.L","address":"Sti. Spicului Nr.9, Satu Mare, Judetul Satu Mare, Romania","country_code":"RO","os_id":"RO2020268PCAW1Y","country_name":"Romania","has_approved_claim":false,"ppe_product_types":null,"ppe_contact_phone":null,"ppe_contact_email":null,"ppe_website":null,"is_closed":null}},{"id":"IN2019083Z67JQ3","type":"Feature","geometry":{"type":"Point","coordinates":[77.5260371,13.0237933]},"properties":{"name":"Snow White Laundertte","address":"No. 185/A 11Th Main Road   3Rd Phase Peenya Industrial Area BANGALORE Karnataka","country_code":"IN","os_id":"IN2019083Z67JQ3","country_name":"India","has_approved_claim":false,"ppe_product_types":null,"ppe_contact_phone":null,"ppe_contact_email":null,"ppe_website":null,"is_closed":null}},{"id":"IN201908308K9ZH","type":"Feature","geometry":{"type":"Point","coordinates":[75.5187096,31.3322906]},"properties":{"name":"Soccer International Ltd","address":"393-394 Leather Complex, Kapurthala Road, Basti Bawa Khel, Jalandhar, Punjab, 144021","country_code":"IN","os_id":"IN201908308K9ZH","country_name":"India","has_approved_claim":false,"ppe_product_types":null,"ppe_contact_phone":null,"ppe_contact_email":null,"ppe_website":null,"is_closed":null}},{"id":"TR2019098ZGWK89","type":"Feature","geometry":{"type":"Point","coordinates":[28.844511,41.0199969]},"properties":{"name":"Soft Yikama","address":"Baglar Mah., Cesme Alti Sok. No:14, Bagcilar, Istanbul, 34209","country_code":"TR","os_id":"TR2019098ZGWK89","country_name":"Türkiye","has_approved_claim":false,"ppe_product_types":null,"ppe_contact_phone":null,"ppe_contact_email":null,"ppe_website":null,"is_closed":null}},{"id":"BD201908375VWKK","type":"Feature","geometry":{"type":"Point","coordinates":[90.27326210000001,23.9501366]},"properties":{"name":"South China Bleaching & Dyeing Factory Ltd.","address":"Plot no 93-96, 109-112, DEPZ  Savar Dhaka Dhaka","country_code":"BD","os_id":"BD201908375VWKK","country_name":"Bangladesh","has_approved_claim":false,"ppe_product_types":null,"ppe_contact_phone":null,"ppe_contact_email":null,"ppe_website":null,"is_closed":null}},{"id":"HN20210771AFNSH","type":"Feature","geometry":{"type":"Point","coordinates":[-87.96475919999999,15.4678432]},"properties":{"name":"Southern Apparel Contractors, S.A.","address":"Zip Calpules, Carretera a La Lima, Km 7, San Pedro Sula, Cortes, 21101","country_code":"HN","os_id":"HN20210771AFNSH","country_name":"Honduras","has_approved_claim":false,"ppe_product_types":null,"ppe_contact_phone":null,"ppe_contact_email":null,"ppe_website":null,"is_closed":null}},{"id":"BD2022136CZD9WK","type":"Feature","geometry":{"type":"Point","coordinates":[90.3199034,23.9099372]},"properties":{"name":"Southern Designers Ltd.","address":"Road 6, Bot Tola Madrasa Road, Fulbagan, Yearpur, Ashulia, Dhaka-1341","country_code":"BD","os_id":"BD2022136CZD9WK","country_name":"Bangladesh","has_approved_claim":false,"ppe_product_types":null,"ppe_contact_phone":null,"ppe_contact_email":null,"ppe_website":null,"is_closed":null}},{"id":"IN202014876FRNH","type":"Feature","geometry":{"type":"Point","coordinates":[77.2801057,11.1886239]},"properties":{"name":"SP Apparels Ltd","address":"39 A Extension street Kaikattipudur Avinashi Tirupur 641 654","country_code":"IN","os_id":"IN202014876FRNH","country_name":"India","has_approved_claim":false,"ppe_product_types":null,"ppe_contact_phone":null,"ppe_contact_email":null,"ppe_website":null,"is_closed":null}},{"id":"IN20190837X7NS7","type":"Feature","geometry":{"type":"Point","coordinates":[77.0795154,11.0571574]},"properties":{"name":"S.P.Apparels Ltd, Sewing Factory - I","address":"1/477 A, Avinashi Main Road, Neelambur","country_code":"IN","os_id":"IN20190837X7NS7","country_name":"India","has_approved_claim":false,"ppe_product_types":null,"ppe_contact_phone":null,"ppe_contact_email":null,"ppe_website":null,"is_closed":null}},{"id":"IN2019085XSZN93","type":"Feature","geometry":{"type":"Point","coordinates":[77.082931,28.514367]},"properties":{"name":"SPARK","address":"166, Phase I, Udyog Vihar, Gurgaon, Haryana, 122016","country_code":"IN","os_id":"IN2019085XSZN93","country_name":"India","has_approved_claim":false,"ppe_product_types":null,"ppe_contact_phone":null,"ppe_contact_email":null,"ppe_website":null,"is_closed":null}},{"id":"VN2022230RST7DE","type":"Feature","geometry":{"type":"Point","coordinates":[105.3423985,10.463087]},"properties":{"name":"Spectre Garment Technologies - An Giang","address":"Road No.5, Lot C6,  Binh Hoa Industrial Park, Chau Thanh District, An Giang Province, Vietnam","country_code":"VN","os_id":"VN2022230RST7DE","country_name":"Vietnam","has_approved_claim":true,"ppe_product_types":null,"ppe_contact_phone":null,"ppe_contact_email":null,"ppe_website":null,"is_closed":null}},{"id":"BR20201918W1V8B","type":"Feature","geometry":{"type":"Point","coordinates":[-49.2897964,-26.8233839]},"properties":{"name":"Spio Malhas Eireli","address":"Rua Ruy Barbosa, 1466, Timbó","country_code":"BR","os_id":"BR20201918W1V8B","country_name":"Brazil","has_approved_claim":false,"ppe_product_types":null,"ppe_contact_phone":null,"ppe_contact_email":null,"ppe_website":null,"is_closed":null}},{"id":"KH2019096YQRW2S","type":"Feature","geometry":{"type":"Point","coordinates":[104.8831902,11.6382476]},"properties":{"name":"Sportex Industry Co., Ltd.","address":"National Road #5 Phum Spean Kpos Sangkat Kilometre #6 Khan Russey Keo Phnom Penh Phnom Penh","country_code":"KH","os_id":"KH2019096YQRW2S","country_name":"Cambodia","has_approved_claim":false,"ppe_product_types":null,"ppe_contact_phone":null,"ppe_contact_email":null,"ppe_website":null,"is_closed":null}},{"id":"IN20200666FQ6C5","type":"Feature","geometry":{"type":"Point","coordinates":[75.8359613,30.9385224]},"properties":{"name":"Sportking India Limited","address":"Village Kanech, Near Sahnewal, G.T.Road, 141001, Ludhiana, Ludhiana, Punjab","country_code":"IN","os_id":"IN20200666FQ6C5","country_name":"India","has_approved_claim":false,"ppe_product_types":null,"ppe_contact_phone":null,"ppe_contact_email":null,"ppe_website":null,"is_closed":null}},{"id":"BD2020218J1ZD2P","type":"Feature","geometry":{"type":"Point","coordinates":[90.4202734,24.7471492]},"properties":{"name":"SQ Birichina Limited","address":"Beraiderchala, Keowa, Maona, Sreepur, Gazipur, Dhaka, Mymenshing, 1740","country_code":"BD","os_id":"BD2020218J1ZD2P","country_name":"Bangladesh","has_approved_claim":false,"ppe_product_types":null,"ppe_contact_phone":null,"ppe_contact_email":null,"ppe_website":null,"is_closed":null}},{"id":"BD2020330QQC1T5","type":"Feature","geometry":{"type":"Point","coordinates":[90.3611085,24.3756913]},"properties":{"name":"Square Denims Limited (Garments Unit)","address":"Mamarishpur, Mallikbari Bhaluka, Mymensingh   Mymensingh2200","country_code":"BD","os_id":"BD2020330QQC1T5","country_name":"Bangladesh","has_approved_claim":false,"ppe_product_types":null,"ppe_contact_phone":null,"ppe_contact_email":null,"ppe_website":null,"is_closed":null}},{"id":"IN2019087N9A4HF","type":"Feature","geometry":{"type":"Point","coordinates":[77.3259812,11.2075041]},"properties":{"name":"SSG Apparels","address":"No. 34, Netaji Apparel Park, Eetiveerampalayam, New Tirupur, Tirupur -641666, Tamilnadu","country_code":"IN","os_id":"IN2019087N9A4HF","country_name":"India","has_approved_claim":false,"ppe_product_types":null,"ppe_contact_phone":null,"ppe_contact_email":null,"ppe_website":null,"is_closed":null}},{"id":"VN2019100WM7D7W","type":"Feature","geometry":{"type":"Point","coordinates":[106.3316629,20.8482562]},"properties":{"name":"SSV Export Garment Company","address":"Hoang Dieu Industrial Zone, Gia Loc District, Hai Duong, Hai Duong","country_code":"VN","os_id":"VN2019100WM7D7W","country_name":"Vietnam","has_approved_claim":false,"ppe_product_types":null,"ppe_contact_phone":null,"ppe_contact_email":null,"ppe_website":null,"is_closed":null}},{"id":"IT2020268M1X17B","type":"Feature","geometry":{"type":"Point","coordinates":[10.8787681,44.8124181]},"properties":{"name":"STAMBECCO SRL","address":"VIA DEI BARROCCIAI,15 , CARPI (MO)","country_code":"IT","os_id":"IT2020268M1X17B","country_name":"Italy","has_approved_claim":false,"ppe_product_types":null,"ppe_contact_phone":null,"ppe_contact_email":null,"ppe_website":null,"is_closed":null}},{"id":"IT2019098Z3D80H","type":"Feature","geometry":{"type":"Point","coordinates":[8.08975,45.39582]},"properties":{"name":"Stamperia Alicese","address":"Via Torino 73,Cavaglià,Biella,Italy","country_code":"IT","os_id":"IT2019098Z3D80H","country_name":"Italy","has_approved_claim":false,"ppe_product_types":null,"ppe_contact_phone":null,"ppe_contact_email":null,"ppe_website":null,"is_closed":null}},{"id":"TW2019108X7P00T","type":"Feature","geometry":{"type":"Point","coordinates":[121.5442302,25.0570525]},"properties":{"name":"Star Group Industrial Ltd","address":"No.176, Section 4, Chung Ching North Road Taipei Taipei Taiwan","country_code":"TW","os_id":"TW2019108X7P00T","country_name":"Taiwan","has_approved_claim":false,"ppe_product_types":null,"ppe_contact_phone":null,"ppe_contact_email":null,"ppe_website":null,"is_closed":null}},{"id":"TN2019319V8CAD1","type":"Feature","geometry":{"type":"Point","coordinates":[10.8959568,35.632401]},"properties":{"name":"Ste' Demco Knitwear Sarl","address":"Zone Industrielle Moknine, Monastir, 5050 (Monastir)","country_code":"TN","os_id":"TN2019319V8CAD1","country_name":"Tunisia","has_approved_claim":false,"ppe_product_types":null,"ppe_contact_phone":null,"ppe_contact_email":null,"ppe_website":null,"is_closed":null}},{"id":"BD2019248D8PD0R","type":"Feature","geometry":{"type":"Point","coordinates":[90.3198257,23.9118537]},"properties":{"name":"Sterling Apparels Ltd.","address":"(2nd Floor), Ashulia DEPZ Road, Beron, Jamgora, Ashulia, Dhaka-1349","country_code":"BD","os_id":"BD2019248D8PD0R","country_name":"Bangladesh","has_approved_claim":false,"ppe_product_types":null,"ppe_contact_phone":null,"ppe_contact_email":null,"ppe_website":null,"is_closed":null}},{"id":"BR20190862C772C","type":"Feature","geometry":{"type":"Point","coordinates":[-45.2748474,-20.8871872]},"properties":{"name":"Stilus Jeans Ltada Me","address":"R. Antonio Martins Tavares, 65, 37270000, Campo Belo, Brazil","country_code":"BR","os_id":"BR20190862C772C","country_name":"Brazil","has_approved_claim":false,"ppe_product_types":null,"ppe_contact_phone":null,"ppe_contact_email":null,"ppe_website":null,"is_closed":null}},{"id":"LK2022065GZH51E","type":"Feature","geometry":{"type":"Point","coordinates":[80.00994620000002,6.9607739]},"properties":{"name":"STRETCHLINE","address":"Lot 89 Biyagama Export Processing Zone Walgama Malwana, Malwana, Gampaha, 11670","country_code":"LK","os_id":"LK2022065GZH51E","country_name":"Sri Lanka","has_approved_claim":false,"ppe_product_types":null,"ppe_contact_phone":null,"ppe_contact_email":null,"ppe_website":null,"is_closed":null}},{"id":"PK2019085NN7HA0","type":"Feature","geometry":{"type":"Point","coordinates":[74.1535132,31.3956176]},"properties":{"name":"STYLE TEXTILE IV","address":"25 KM, MULTAN ROAD LAHORE PUNJAB 54500","country_code":"PK","os_id":"PK2019085NN7HA0","country_name":"Pakistan","has_approved_claim":true,"ppe_product_types":null,"ppe_contact_phone":null,"ppe_contact_email":null,"ppe_website":null,"is_closed":null}},{"id":"BR2021253J1HE1P","type":"Feature","geometry":{"type":"Point","coordinates":[-45.541599,-22.065979]},"properties":{"name":"Sueli Magnani","address":"Claudio Manoel da Costa, 220, Centro, Heliodora","country_code":"BR","os_id":"BR2021253J1HE1P","country_name":"Brazil","has_approved_claim":false,"ppe_product_types":null,"ppe_contact_phone":null,"ppe_contact_email":null,"ppe_website":null,"is_closed":null}},{"id":"TR2022028T91JQ3","type":"Feature","geometry":{"type":"Point","coordinates":[29.2634713,40.8777047]},"properties":{"name":"SUN ETİKET VE TEKSTİL YAN ÜRÜNLERİ SANAYİ TİC.LTD.ŞTİ","address":"ORTA MH.MENDERES CD. . No: 7/1 ISTANBUL","country_code":"TR","os_id":"TR2022028T91JQ3","country_name":"Türkiye","has_approved_claim":false,"ppe_product_types":null,"ppe_contact_phone":null,"ppe_contact_email":null,"ppe_website":null,"is_closed":null}},{"id":"KH20191430DMQQP","type":"Feature","geometry":{"type":"Point","coordinates":[104.8246027,11.5333135]},"properties":{"name":"Suntex Private Limited","address":"No. 8 Street Choam Chao, Sangkat Choam Chao, Khan Por Senchey  Phnom Penh 12412  Cambodia","country_code":"KH","os_id":"KH20191430DMQQP","country_name":"Cambodia","has_approved_claim":false,"ppe_product_types":null,"ppe_contact_phone":null,"ppe_contact_email":null,"ppe_website":null,"is_closed":null}},{"id":"TR2020053MFGXRT","type":"Feature","geometry":{"type":"Point","coordinates":[27.375161,38.17625]},"properties":{"name":"Sun Textile","address":"YEDİ EYLÜL MAH. CELAL UMUR CAD. NO:6/A TORBALI Torbalı Izmir 35860","country_code":"TR","os_id":"TR2020053MFGXRT","country_name":"Türkiye","has_approved_claim":false,"ppe_product_types":null,"ppe_contact_phone":null,"ppe_contact_email":null,"ppe_website":null,"is_closed":null}},{"id":"CN2022347QCF70Y","type":"Feature","geometry":{"type":"Point","coordinates":[119.219097,33.798393]},"properties":{"name":"Suqian Topshow Clothing & Accessories Co., Ltd.","address":"Building 2# And 3#, Science And Technology Pioneering Park Of Economic Development Zone, Jinshajiang Road, Sihong County, Suqian City, Jiangsu","country_code":"CN","os_id":"CN2022347QCF70Y","country_name":"China","has_approved_claim":false,"ppe_product_types":null,"ppe_contact_phone":null,"ppe_contact_email":null,"ppe_website":null,"is_closed":null}},{"id":"IN2020325E4XEMP","type":"Feature","geometry":{"type":"Point","coordinates":[78.1862899,12.6342575]},"properties":{"name":"Sustainably Crafted Clothing Private Limited","address":"30/1A2, Naranikuppam, Krishnagiri, Tamil Nadu, 635121","country_code":"IN","os_id":"IN2020325E4XEMP","country_name":"India","has_approved_claim":false,"ppe_product_types":null,"ppe_contact_phone":null,"ppe_contact_email":null,"ppe_website":null,"is_closed":null}},{"id":"CN2020191QXWE53","type":"Feature","geometry":{"type":"Point","coordinates":[120.6291749,31.2153464]},"properties":{"name":"SUZHOU AI SI JIE KNITTING CO.,LTD","address":"No7,Sheng Nan Road,Wuzhou District Suzhou, SUZHOU","country_code":"CN","os_id":"CN2020191QXWE53","country_name":"China","has_approved_claim":false,"ppe_product_types":null,"ppe_contact_phone":null,"ppe_contact_email":null,"ppe_website":null,"is_closed":null}},{"id":"CN2019100K3Z951","type":"Feature","geometry":{"type":"Point","coordinates":[120.869649,31.036195]},"properties":{"name":"Suzhou Diseta Textile Co., Ltd.","address":"111 Chengsi Road,Fenhu,LuXu Town, Wujiang, Jiangsu","country_code":"CN","os_id":"CN2019100K3Z951","country_name":"China","has_approved_claim":false,"ppe_product_types":null,"ppe_contact_phone":null,"ppe_contact_email":null,"ppe_website":null,"is_closed":null}},{"id":"CN2021165GXY2P5","type":"Feature","geometry":{"type":"Point","coordinates":[120.770586,31.319614]},"properties":{"name":"Suzhou Industrial Park Xintianlun Garment Accessories Co., Ltd.","address":"3F, Building 1 Xintianlun Creative Park, No.55 Tingdong Road, Suzhou Industry Park  Suzhou215121","country_code":"CN","os_id":"CN2021165GXY2P5","country_name":"China","has_approved_claim":false,"ppe_product_types":null,"ppe_contact_phone":null,"ppe_contact_email":null,"ppe_website":null,"is_closed":null}},{"id":"CN2019085TBN91E","type":"Feature","geometry":{"type":"Point","coordinates":[120.5299367,31.3469981]},"properties":{"name":"Suzhou Steven Clothing Co., Ltd.","address":"No. 18 East Changhu Road Wuzhong District Suzhou Jiangsu","country_code":"CN","os_id":"CN2019085TBN91E","country_name":"China","has_approved_claim":false,"ppe_product_types":null,"ppe_contact_phone":null,"ppe_contact_email":null,"ppe_website":null,"is_closed":null}},{"id":"CN2022292PJSFJ6","type":"Feature","geometry":{"type":"Point","coordinates":[120.550255,31.286337]},"properties":{"name":"Suzhou Tianyuan Garments Co., Ltd","address":"No. 157, Yushan Road, and, No. 977, Zhujiang Road, New District, Suzhou, Jiangsu 215163","country_code":"CN","os_id":"CN2022292PJSFJ6","country_name":"China","has_approved_claim":false,"ppe_product_types":null,"ppe_contact_phone":null,"ppe_contact_email":null,"ppe_website":null,"is_closed":null}}]