[{"id":"CN2020190279Y8Q","type":"Feature","geometry":{"type":"Point","coordinates":[112.711819,22.17938]},"properties":{"name":"Ever Eyewear Co.,Ltd","address":"#6, Dianli road, Chen Zhuang village, Pan Qiao street, Ou Hai districtWenzhou325018","country_code":"CN","os_id":"CN2020190279Y8Q","country_name":"China","has_approved_claim":false,"ppe_product_types":null,"ppe_contact_phone":null,"ppe_contact_email":null,"ppe_website":null,"is_closed":null}},{"id":"VN2021182YXY46Q","type":"Feature","geometry":{"type":"Point","coordinates":[106.3744783,20.969745]},"properties":{"name":"Ever-Glory Vietnam Garment","address":"Lot 13, Nam Sach Industrial Zone, Ai Quoc commune, Hai Duong, Hai Duong, 34000","country_code":"VN","os_id":"VN2021182YXY46Q","country_name":"Vietnam","has_approved_claim":false,"ppe_product_types":null,"ppe_contact_phone":null,"ppe_contact_email":null,"ppe_website":null,"is_closed":null}},{"id":"BD2021302FQ3Q0G","type":"Feature","geometry":{"type":"Point","coordinates":[90.422687,23.891062]},"properties":{"name":"Everway Yarn Dyeing","address":"Monno Nagar, Tongi, Gazipur, Gazipur","country_code":"BD","os_id":"BD2021302FQ3Q0G","country_name":"Bangladesh","has_approved_claim":false,"ppe_product_types":null,"ppe_contact_phone":null,"ppe_contact_email":null,"ppe_website":null,"is_closed":null}},{"id":"BD202005362XYJ7","type":"Feature","geometry":{"type":"Point","coordinates":[90.3272255,23.9003712]},"properties":{"name":"EXPRESS WASHING AND DYEING LIMITED","address":"144,147,148,152,154 Narashinghpur, Ashulia Savar, Dhaka-1341 Dhaka Dhaka 1341","country_code":"BD","os_id":"BD202005362XYJ7","country_name":"Bangladesh","has_approved_claim":false,"ppe_product_types":null,"ppe_contact_phone":null,"ppe_contact_email":null,"ppe_website":null,"is_closed":null}},{"id":"BR20200343F7JNZ","type":"Feature","geometry":{"type":"Point","coordinates":[-47.2997519,-23.2520529]},"properties":{"name":"Fabio Henrique Silveira Leite & Cia Ltda - Me","address":"Rua Dom Manuel Silveira D Elboux, 412 ,13301170,Itu","country_code":"BR","os_id":"BR20200343F7JNZ","country_name":"Brazil","has_approved_claim":false,"ppe_product_types":null,"ppe_contact_phone":null,"ppe_contact_email":null,"ppe_website":null,"is_closed":null}},{"id":"BD2020191913HWF","type":"Feature","geometry":{"type":"Point","coordinates":[90.3025009,23.8825219]},"properties":{"name":"Fabrica Knit Composite Ltd.","address":"Bashaid, Ashulia, Savar, Dhaka, Bangladesh, Dhaka","country_code":"BD","os_id":"BD2020191913HWF","country_name":"Bangladesh","has_approved_claim":false,"ppe_product_types":null,"ppe_contact_phone":null,"ppe_contact_email":null,"ppe_website":null,"is_closed":null}},{"id":"BR202125332QMZJ","type":"Feature","geometry":{"type":"Point","coordinates":[-49.838742,-26.8867955]},"properties":{"name":"FACCAO DESIGNER EIRELI","address":"RUA DONA ROMANA FISTAROL, 285, PALMITOS, Vitor Meireles","country_code":"BR","os_id":"BR202125332QMZJ","country_name":"Brazil","has_approved_claim":false,"ppe_product_types":null,"ppe_contact_phone":null,"ppe_contact_email":null,"ppe_website":null,"is_closed":null}},{"id":"BD20192482C1TBM","type":"Feature","geometry":{"type":"Point","coordinates":[90.3991985,23.9369179]},"properties":{"name":"Fancy Fashion Sweaters Ltd.","address":"House 1153-54, Shahid Siddique Road, South Khailkur, Gacha, Gazipur-1704","country_code":"BD","os_id":"BD20192482C1TBM","country_name":"Bangladesh","has_approved_claim":false,"ppe_product_types":null,"ppe_contact_phone":null,"ppe_contact_email":null,"ppe_website":null,"is_closed":null}},{"id":"BR2019086V7RD5T","type":"Feature","geometry":{"type":"Point","coordinates":[-49.5621856,-27.1763573]},"properties":{"name":"Fanete Confeccoes Ltda Me","address":"R. Christiano Christen, 106, 88182000, Lontras, Brazil","country_code":"BR","os_id":"BR2019086V7RD5T","country_name":"Brazil","has_approved_claim":false,"ppe_product_types":null,"ppe_contact_phone":null,"ppe_contact_email":null,"ppe_website":null,"is_closed":null}},{"id":"CN2019093WZSXE8","type":"Feature","geometry":{"type":"Point","coordinates":[120.6670222,31.2046982]},"properties":{"name":"FAR EASTERN","address":"#1588, YINZHONG  S. ROAD JIANG SU JIANGSU 215124","country_code":"CN","os_id":"CN2019093WZSXE8","country_name":"China","has_approved_claim":false,"ppe_product_types":null,"ppe_contact_phone":null,"ppe_contact_email":null,"ppe_website":null,"is_closed":null}},{"id":"VN2019318A8P7HW","type":"Feature","geometry":{"type":"Point","coordinates":[106.881687,11.476938]},"properties":{"name":"Far Eastern New Apparel (Viet Nam) Limited","address":"D1 St., Bac Dong Phu Industrial Park , Tan Phu Town, Dong Phu District, Binh Phuoc","country_code":"VN","os_id":"VN2019318A8P7HW","country_name":"Vietnam","has_approved_claim":false,"ppe_product_types":null,"ppe_contact_phone":null,"ppe_contact_email":null,"ppe_website":null,"is_closed":null}},{"id":"IN20190831KES09","type":"Feature","geometry":{"type":"Point","coordinates":[78.7166025,12.7901432]},"properties":{"name":"Farida Shoes","address":"17 Jalal Road Ambur 635802 Vellore District Chennai Region Tamil Nadu","country_code":"IN","os_id":"IN20190831KES09","country_name":"India","has_approved_claim":false,"ppe_product_types":null,"ppe_contact_phone":null,"ppe_contact_email":null,"ppe_website":null,"is_closed":null}},{"id":"BD2019085XBQCMY","type":"Feature","geometry":{"type":"Point","coordinates":[89.6308921,23.5423919]},"properties":{"name":"FARSEEING KNIT COMPOSITE","address":"Faridpur, Talihati, Sreepur, Gazipur, 1703","country_code":"BD","os_id":"BD2019085XBQCMY","country_name":"Bangladesh","has_approved_claim":false,"ppe_product_types":null,"ppe_contact_phone":null,"ppe_contact_email":null,"ppe_website":null,"is_closed":null}},{"id":"PK2019243HHM68M","type":"Feature","geometry":{"type":"Point","coordinates":[67.08153,24.952559]},"properties":{"name":"Fashion Art International","address":"Plot No. LA-3/1, Block-22, F.B. Industrial Area, Karachi. Pakistan","country_code":"PK","os_id":"PK2019243HHM68M","country_name":"Pakistan","has_approved_claim":false,"ppe_product_types":null,"ppe_contact_phone":null,"ppe_contact_email":null,"ppe_website":null,"is_closed":null}},{"id":"BD2019083WPH49D","type":"Feature","geometry":{"type":"Point","coordinates":[90.4122604,23.867917]},"properties":{"name":"Fashion Flash Ltd","address":"149 Shan Kabir Mazar Road Uttara Dhaka - 1230","country_code":"BD","os_id":"BD2019083WPH49D","country_name":"Bangladesh","has_approved_claim":false,"ppe_product_types":null,"ppe_contact_phone":null,"ppe_contact_email":null,"ppe_website":null,"is_closed":null}},{"id":"BD2019085BA1WXE","type":"Feature","geometry":{"type":"Point","coordinates":[90.2559216,23.8261662]},"properties":{"name":"FASHION KNIT GARMENTS LTD","address":"4 Karnapara, Savar, Dhaka, 1340","country_code":"BD","os_id":"BD2019085BA1WXE","country_name":"Bangladesh","has_approved_claim":false,"ppe_product_types":null,"ppe_contact_phone":null,"ppe_contact_email":null,"ppe_website":null,"is_closed":null}},{"id":"BD2019100DW7H1N","type":"Feature","geometry":{"type":"Point","coordinates":[91.8103036,22.339052]},"properties":{"name":"Fashion Watch Limited","address":"1363/A 1364 Askarabad, D.T. Road, Doublemoring, Chittagong, Bangladesh, Chittagong, Chittagong zila","country_code":"BD","os_id":"BD2019100DW7H1N","country_name":"Bangladesh","has_approved_claim":false,"ppe_product_types":null,"ppe_contact_phone":null,"ppe_contact_email":null,"ppe_website":null,"is_closed":null}},{"id":"TR2020053TE6R4W","type":"Feature","geometry":{"type":"Point","coordinates":[28.6760711,41.0422763]},"properties":{"name":"Fateks Giyim San. ve Tic. A.S.","address":"Esenyurt, Doğan Araslı Cad. Ardıçlı Mah. 804. Sok No:3 Esenyurt Istanbul 34538","country_code":"TR","os_id":"TR2020053TE6R4W","country_name":"Türkiye","has_approved_claim":false,"ppe_product_types":null,"ppe_contact_phone":null,"ppe_contact_email":null,"ppe_website":null,"is_closed":null}},{"id":"IN2022300Y6VWJD","type":"Feature","geometry":{"type":"Point","coordinates":[73.0051652,20.2623716]},"properties":{"name":"FAZE THREE LIMITED","address":"Survey No-380/1,  Silvassa Khanvel Road, Village-Dapada, Silvassa 396230 Dadra and Nagar Haveli","country_code":"IN","os_id":"IN2022300Y6VWJD","country_name":"India","has_approved_claim":false,"ppe_product_types":null,"ppe_contact_phone":null,"ppe_contact_email":null,"ppe_website":null,"is_closed":null}},{"id":"PH2019083JHCJFZ","type":"Feature","geometry":{"type":"Point","coordinates":[123.9848224,10.3285407]},"properties":{"name":"Feeder Apparel Corp.","address":"Block C5,5th St. Cor. 2nd Ave. MEZ 1,Lapu-Lapu / Cebu","country_code":"PH","os_id":"PH2019083JHCJFZ","country_name":"Philippines","has_approved_claim":false,"ppe_product_types":null,"ppe_contact_phone":null,"ppe_contact_email":null,"ppe_website":null,"is_closed":null}},{"id":"BR202125357YFRM","type":"Feature","geometry":{"type":"Point","coordinates":[-44.9914912,-19.8704804]},"properties":{"name":"FEGAN-INDUSTRIA E COMERCIO DE CALCADOS LTDA","address":"Nazaré, 470, São Marcos, Nova Serrana","country_code":"BR","os_id":"BR202125357YFRM","country_name":"Brazil","has_approved_claim":false,"ppe_product_types":null,"ppe_contact_phone":null,"ppe_contact_email":null,"ppe_website":null,"is_closed":null}},{"id":"CN2020191TT06XQ","type":"Feature","geometry":{"type":"Point","coordinates":[121.436533,29.6606859]},"properties":{"name":"FENGHUA FUSHENG KNITTING GARMENT CO., LTD.","address":"No. 65, Ruifeng Road, Dongjiao Development Zone, Yue Lin Street, Fenghua, Ningbo City, China","country_code":"CN","os_id":"CN2020191TT06XQ","country_name":"China","has_approved_claim":true,"ppe_product_types":null,"ppe_contact_phone":null,"ppe_contact_email":null,"ppe_website":null,"is_closed":null}},{"id":"CN2019086WQTKW7","type":"Feature","geometry":{"type":"Point","coordinates":[113.751799,23.020673]},"properties":{"name":"Fengxian Huaxia Headgear Co., Ltd.","address":"East Dongcheng Road, Dongguan Economic Development Zone, Feng Xian, 221700, Xuzhou, China","country_code":"CN","os_id":"CN2019086WQTKW7","country_name":"China","has_approved_claim":false,"ppe_product_types":null,"ppe_contact_phone":null,"ppe_contact_email":null,"ppe_website":null,"is_closed":null}},{"id":"PL20191560FV345","type":"Feature","geometry":{"type":"Point","coordinates":[18.9407327,51.6067467]},"properties":{"name":"Ferax","address":"4/6 Szadkowska Str and 1B Ceramiczna Str 98–220 Zdunska Wola Poland","country_code":"PL","os_id":"PL20191560FV345","country_name":"Poland","has_approved_claim":false,"ppe_product_types":null,"ppe_contact_phone":null,"ppe_contact_email":null,"ppe_website":null,"is_closed":null}},{"id":"TR2019172V912CF","type":"Feature","geometry":{"type":"Point","coordinates":[28.825745,41.0534114]},"properties":{"name":"Fetih Tekstil San. Tic. Ltd. Sti","address":"Mahmutbey Merkez Mah. Tasocagi Cad.2. Sk No:5 Gunesli-Bagcilar Istanbul  Istanbul","country_code":"TR","os_id":"TR2019172V912CF","country_name":"Türkiye","has_approved_claim":false,"ppe_product_types":null,"ppe_contact_phone":null,"ppe_contact_email":null,"ppe_website":null,"is_closed":null}},{"id":"BD2020281GF2E26","type":"Feature","geometry":{"type":"Point","coordinates":[90.37806959999999,23.9661551]},"properties":{"name":"Fiat Fashion Ltd.","address":"878-879 Sharifpur, National University, Gazipur, Dhaka","country_code":"BD","os_id":"BD2020281GF2E26","country_name":"Bangladesh","has_approved_claim":false,"ppe_product_types":null,"ppe_contact_phone":null,"ppe_contact_email":null,"ppe_website":null,"is_closed":null}},{"id":"BR2020057BCV4WP","type":"Feature","geometry":{"type":"Point","coordinates":[-49.256623,-26.883341]},"properties":{"name":"Fina Estamparia Ltda Me","address":"R. São Vicente, 650 Galpão 1,89130000,Indaial","country_code":"BR","os_id":"BR2020057BCV4WP","country_name":"Brazil","has_approved_claim":false,"ppe_product_types":null,"ppe_contact_phone":null,"ppe_contact_email":null,"ppe_website":null,"is_closed":null}},{"id":"BR20201909XYKA3","type":"Feature","geometry":{"type":"Point","coordinates":[-38.5595394,-3.7641403]},"properties":{"name":"Finna Industria de Confecções Eireli","address":"R. Barão de Sobral, 1225, Fortaleza, , 60420770","country_code":"BR","os_id":"BR20201909XYKA3","country_name":"Brazil","has_approved_claim":false,"ppe_product_types":null,"ppe_contact_phone":null,"ppe_contact_email":null,"ppe_website":null,"is_closed":null}},{"id":"TR2020191E29F30","type":"Feature","geometry":{"type":"Point","coordinates":[27.1376057,38.3317246]},"properties":{"name":"FIRATTEKS TEKSTIL SAN. VE TIC. LTD. STI.","address":"KAHRAMANLAR CADDESI, 29, Izmir, GAZIEMIR, 35410","country_code":"TR","os_id":"TR2020191E29F30","country_name":"Türkiye","has_approved_claim":false,"ppe_product_types":null,"ppe_contact_phone":null,"ppe_contact_email":null,"ppe_website":null,"is_closed":null}},{"id":"TR2019259ENNZHA","type":"Feature","geometry":{"type":"Point","coordinates":[29.49861,40.092493]},"properties":{"name":"FORTE BOYA VE APRE TEKSANTICAS","address":"SULAYMANIYE OSB MAH. TAYYARE MEYDANI CAD. 8 INEGOL/BURSA - BURSA - 16400 - INEGOL","country_code":"TR","os_id":"TR2019259ENNZHA","country_name":"Türkiye","has_approved_claim":false,"ppe_product_types":null,"ppe_contact_phone":null,"ppe_contact_email":null,"ppe_website":null,"is_closed":null}},{"id":"CN2019181A4QYMY","type":"Feature","geometry":{"type":"Point","coordinates":[113.9591,23.03277]},"properties":{"name":"Fortress Expert Cosmetic Co Ltd","address":"A Area of Block 11 No 5 Changhong Road, ZhangKeng Industrial park Xicheng District HengLI Town Dongguan City Guangdong Province","country_code":"CN","os_id":"CN2019181A4QYMY","country_name":"China","has_approved_claim":false,"ppe_product_types":null,"ppe_contact_phone":null,"ppe_contact_email":null,"ppe_website":null,"is_closed":null}},{"id":"CN2020053BNKJZ1","type":"Feature","geometry":{"type":"Point","coordinates":[113.259549,22.948264]},"properties":{"name":"Foshan City Shunde Goldtex Group Co.,Ltd","address":"Haiwei Industrial Zone, Ronggui, Shunde District, Foshan, Foshan Guangdong 528305","country_code":"CN","os_id":"CN2020053BNKJZ1","country_name":"China","has_approved_claim":false,"ppe_product_types":null,"ppe_contact_phone":null,"ppe_contact_email":null,"ppe_website":null,"is_closed":null}},{"id":"PT20191725DYZQ0","type":"Feature","geometry":{"type":"Point","coordinates":[-8.301011,41.4505018]},"properties":{"name":"Francisco Vaz Costa","address":"Rua Do Pombal, Apartado 32 Guimarães 4801-909  Braga","country_code":"PT","os_id":"PT20191725DYZQ0","country_name":"Portugal","has_approved_claim":false,"ppe_product_types":null,"ppe_contact_phone":null,"ppe_contact_email":null,"ppe_website":null,"is_closed":null}},{"id":"IN201908341S5G1","type":"Feature","geometry":{"type":"Point","coordinates":[77.3483003,11.1575416]},"properties":{"name":"Fresh Print LLP","address":"8/643 D Pvg Garden  Pooluvapatti Post P.N. Road Tirupur Tamil Nadu","country_code":"IN","os_id":"IN201908341S5G1","country_name":"India","has_approved_claim":false,"ppe_product_types":null,"ppe_contact_phone":null,"ppe_contact_email":null,"ppe_website":null,"is_closed":null}},{"id":"PT20190831H2CGB","type":"Feature","geometry":{"type":"Point","coordinates":[-8.2914853,41.265728]},"properties":{"name":"FSM INDUSTRIA DE CONFECCOES LDA (HEAD OFFICE FSM GROUP)","address":"Rua Do Comercio, 35 4620-583 Cristelos Lousada Tamega","country_code":"PT","os_id":"PT20190831H2CGB","country_name":"Portugal","has_approved_claim":false,"ppe_product_types":null,"ppe_contact_phone":null,"ppe_contact_email":null,"ppe_website":null,"is_closed":null}},{"id":"CN2020148WSG5KZ","type":"Feature","geometry":{"type":"Point","coordinates":[118.2600312,25.494522]},"properties":{"name":"Fujian Dehua S&M Arts Co Ltd","address":"Chengdong Industrial Area, Dehua County Xunzhong Town Quanzhou City Fujian Province","country_code":"CN","os_id":"CN2020148WSG5KZ","country_name":"China","has_approved_claim":false,"ppe_product_types":null,"ppe_contact_phone":null,"ppe_contact_email":null,"ppe_website":null,"is_closed":null}},{"id":"CN2021288NK66XS","type":"Feature","geometry":{"type":"Point","coordinates":[118.176712,24.720934]},"properties":{"name":"Fujian Dehua Yusheng Crafts Co., Ltd.","address":"Chengdong Development Zone, Xunzhong Town, Dehua County, Quanzhou City, Fujian, China","country_code":"CN","os_id":"CN2021288NK66XS","country_name":"China","has_approved_claim":false,"ppe_product_types":null,"ppe_contact_phone":null,"ppe_contact_email":null,"ppe_website":null,"is_closed":null}},{"id":"CN20200535K2RS8","type":"Feature","geometry":{"type":"Point","coordinates":[119.60007,25.758226]},"properties":{"name":"FUJIAN DONGLONG KNITTING&TEXTILE Co.,LTD.","address":"No.11,Longfang Road,Songxia Town, Changle Fujian 350206","country_code":"CN","os_id":"CN20200535K2RS8","country_name":"China","has_approved_claim":false,"ppe_product_types":null,"ppe_contact_phone":null,"ppe_contact_email":null,"ppe_website":null,"is_closed":null}},{"id":"CN2020351Y8DGMN","type":"Feature","geometry":{"type":"Point","coordinates":[119.6684006,25.9425658]},"properties":{"name":"FUJIAN HANGGANG TEXTILE CO., LTD.","address":"11 PENGCHENG ROAD,PENGXIE VILLAGE, HUNAN TOWN,CHANGLE DISTRICT FUZHOU FUJIAN 1001183","country_code":"CN","os_id":"CN2020351Y8DGMN","country_name":"China","has_approved_claim":false,"ppe_product_types":null,"ppe_contact_phone":null,"ppe_contact_email":null,"ppe_website":null,"is_closed":null}},{"id":"CN2022007YBMP3M","type":"Feature","geometry":{"type":"Point","coordinates":[118.52393,24.90106]},"properties":{"name":"FUJIAN HUAYI TECHNOLOGY CO.,LTD","address":"NO.22,Zishan Road, Licheng District","country_code":"CN","os_id":"CN2022007YBMP3M","country_name":"China","has_approved_claim":false,"ppe_product_types":null,"ppe_contact_phone":null,"ppe_contact_email":null,"ppe_website":null,"is_closed":null}},{"id":"CN2019083C29RE5","type":"Feature","geometry":{"type":"Point","coordinates":[117.430061,23.701262]},"properties":{"name":"Fujian Jinjiang Huamei Knitting & Clothing Co Ltd","address":"Dongshan,Shenhu,Jinjiang,Fujiang,Xia Men","country_code":"CN","os_id":"CN2019083C29RE5","country_name":"China","has_approved_claim":false,"ppe_product_types":null,"ppe_contact_phone":null,"ppe_contact_email":null,"ppe_website":null,"is_closed":null}},{"id":"CN20191920C9E1D","type":"Feature","geometry":{"type":"Point","coordinates":[119.098799,25.290026]},"properties":{"name":"Fujian Putian Xinda Footwear","address":"Xin Cuo Dian,Hu Shi Town, Xiu Yu Area, on ground floor","country_code":"CN","os_id":"CN20191920C9E1D","country_name":"China","has_approved_claim":false,"ppe_product_types":null,"ppe_contact_phone":null,"ppe_contact_email":null,"ppe_website":null,"is_closed":null}},{"id":"IT2020216Z182VF","type":"Feature","geometry":{"type":"Point","coordinates":[10.4725071,45.2792273]},"properties":{"name":"Fulgar SpA","address":"Strada Casaloldo, 55, 46042,  Castel Goffredo, Mantua","country_code":"IT","os_id":"IT2020216Z182VF","country_name":"Italy","has_approved_claim":false,"ppe_product_types":null,"ppe_contact_phone":null,"ppe_contact_email":null,"ppe_website":null,"is_closed":null}},{"id":"CN2019083CQKKH2","type":"Feature","geometry":{"type":"Point","coordinates":[119.2955105,25.7699571]},"properties":{"name":"FUQING FUSHENGDA PLASTIC PRODUCTS CO.,LTD","address":"Jingyang Industrial Zone 350304 Fuqing Fuzhou Fujian","country_code":"CN","os_id":"CN2019083CQKKH2","country_name":"China","has_approved_claim":false,"ppe_product_types":null,"ppe_contact_phone":null,"ppe_contact_email":null,"ppe_website":null,"is_closed":null}},{"id":"CN2019181G5C57M","type":"Feature","geometry":{"type":"Point","coordinates":[119.463283,25.694782]},"properties":{"name":"Fuqing Huihua Plastics Co, Ltd","address":"Yuanzai Industrial Park Haikou Town Fuqing City Fujian","country_code":"CN","os_id":"CN2019181G5C57M","country_name":"China","has_approved_claim":false,"ppe_product_types":null,"ppe_contact_phone":null,"ppe_contact_email":null,"ppe_website":null,"is_closed":null}},{"id":"CN20203254TSK6F","type":"Feature","geometry":{"type":"Point","coordinates":[119.3840655,25.7202946]},"properties":{"name":"FUQING LIU HE FOOTWEAR CO.,LTD","address":"3rd Area,Industry Concentration Zone, Jinyang Town, FUQING,  Fujian, 350300","country_code":"CN","os_id":"CN20203254TSK6F","country_name":"China","has_approved_claim":false,"ppe_product_types":null,"ppe_contact_phone":null,"ppe_contact_email":null,"ppe_website":null,"is_closed":null}},{"id":"CN2022299NX0FX9","type":"Feature","geometry":{"type":"Point","coordinates":[119.349358,25.981892]},"properties":{"name":"Fuzhou TianFu Plastic & Leather Co., Ltd.","address":"Building of Fuzhou TianFu Plastic & Leather Co., Ltd., No. 16, Daoshishan Road, Luozhou Town, Cangshan District, Fuzhou, Fujian 350019","country_code":"CN","os_id":"CN2022299NX0FX9","country_name":"China","has_approved_claim":false,"ppe_product_types":null,"ppe_contact_phone":null,"ppe_contact_email":null,"ppe_website":null,"is_closed":null}},{"id":"VN20190851570T4","type":"Feature","geometry":{"type":"Point","coordinates":[106.3191905,11.1370942]},"properties":{"name":"GAIN LUCKY","address":"NO  40-6, N14 STREET, PHUOC DONG INDUSTRIAL PARK, PHUOC DONG WARD, GO DAU DISTRICT, TAY NINH PROVINCE PHUOC DONG TAY NINH","country_code":"VN","os_id":"VN20190851570T4","country_name":"Vietnam","has_approved_claim":false,"ppe_product_types":null,"ppe_contact_phone":null,"ppe_contact_email":null,"ppe_website":null,"is_closed":null}},{"id":"TR2020230XJNS8M","type":"Feature","geometry":{"type":"Point","coordinates":[29.8352303,37.9524437]},"properties":{"name":"Gamateks Tekstil (Dazkiri)","address":"Vehbi Koc San  Bolg 92 Sok No:2  Dazkiri Afyonkarahisar","country_code":"TR","os_id":"TR2020230XJNS8M","country_name":"Türkiye","has_approved_claim":false,"ppe_product_types":null,"ppe_contact_phone":null,"ppe_contact_email":null,"ppe_website":null,"is_closed":null}},{"id":"TR2020084EZPANR","type":"Feature","geometry":{"type":"Point","coordinates":[29.1111577,37.764249]},"properties":{"name":"GAMATEKS TEKSTIL SAN. VE TIC. A.S. - KARAKURT BRANCH","address":"1891 SOK. NO:52, KARAKURT YOLU UZERI, PAMUKKALE 20800, DENIZLI","country_code":"TR","os_id":"TR2020084EZPANR","country_name":"Türkiye","has_approved_claim":false,"ppe_product_types":null,"ppe_contact_phone":null,"ppe_contact_email":null,"ppe_website":null,"is_closed":null}}]